{"street": "East 18 Street", "name": "Pete's Tavern S/C #111", "location": {"type": "Point", "coordinates": [-73.98686092577286, 40.736444345672204]}}
{"street": "2 Avenue", "name": "Dorrian's Red Hand E/S/C #217", "location": {"type": "Point", "coordinates": [-73.95277678574939, 40.77643245813948]}}
{"street": "3 Avenue", "name": "Caffe Isle Of Capri Inc", "location": {"type": "Point", "coordinates": [-73.96573601619161, 40.76269981075205]}}
{"street": "Clark Street", "name": "P J Coffee Shop Inc", "location": {"type": "Point", "coordinates": [-73.99304094634415, 40.697425853420235]}}
{"street": "West 4 Street", "name": "Zonor Rest Corp", "location": {"type": "Point", "coordinates": [-74.0028671367192, 40.73401546913192]}}
{"street": "7 Avenue South", "name": "Caliente Cab Co", "location": {"type": "Point", "coordinates": [-74.00388110812699, 40.7316615068668]}}
{"street": "West 4 Street", "name": "Tio Pepe S/C #215", "location": {"type": "Point", "coordinates": [-74.00144809397511, 40.73210487531526]}}
{"street": "Columbus Avenue", "name": "The City Grill", "location": {"type": "Point", "coordinates": [-73.97853705123687, 40.777705412080245]}}
{"street": "2 Avenue", "name": "E/S/C #255", "location": {"type": "Point", "coordinates": [-73.96752566702992, 40.756233685361394]}}
{"street": "Emmons Avenue", "name": "Roll-N-Roaster Corp.", "location": {"type": "Point", "coordinates": [-73.93980406423125, 40.58395122457237]}}
{"street": "Madison Avenue", "name": "Nectar Restaurant Corp", "location": {"type": "Point", "coordinates": [-73.96074547206369, 40.77826959973669]}}
{"street": "7 Avenue", "name": "E/S/C #294", "location": {"type": "Point", "coordinates": [-73.98165429371588, 40.76338057629478]}}
{"street": "Broadway", "name": "Indian Cafe", "location": {"type": "Point", "coordinates": [-73.96783838281848, 40.80265862752833]}}
{"street": "East 86 Street", "name": "Gracie's Corner", "location": {"type": "Point", "coordinates": [-73.95049287258203, 40.77732116023205]}}
{"street": "Columbus Avenue", "name": "Mughlai Indian Cuisine", "location": {"type": "Point", "coordinates": [-73.97731029070872, 40.77944518693761]}}
{"street": "2 Avenue", "name": "Benjamin", "location": {"type": "Point", "coordinates": [-73.9762850635953, 40.744227736270204]}}
{"street": "Manhattan Avenue", "name": "Fortunato Bros.Cafe & Bakery Corp", "location": {"type": "Point", "coordinates": [-73.94597281334283, 40.71365115947321]}}
{"street": "La Guardia Place", "name": "Bruno Bakery S/C #362", "location": {"type": "Point", "coordinates": [-73.99933468720627, 40.727626251609365]}}
{"street": "Macdougal Street", "name": "Caffe Dante Inc", "location": {"type": "Point", "coordinates": [-74.001494103853, 40.72885959730405]}}
{"street": "Broadway", "name": "Westside Restaurant E/S/C #417", "location": {"type": "Point", "coordinates": [-73.98200475170165, 40.77639648525826]}}
{"street": "Hudson Street", "name": "White Horse Tavern", "location": {"type": "Point", "coordinates": [-74.00599264107973, 40.73582761714791]}}
{"street": "2 Avenue", "name": "Mexico Lindo E/S/C #431", "location": {"type": "Point", "coordinates": [-73.97957658222253, 40.73966817358166]}}
{"street": "Macdougal Street", "name": "Cafe Reggio", "location": {"type": "Point", "coordinates": [-74.00033182492402, 40.73022220068271]}}
{"street": "Cornelia Street", "name": "Cornelia Street Cafe S/C #480", "location": {"type": "Point", "coordinates": [-74.00236540244504, 40.73133145837005]}}
{"street": "Mulberry Street", "name": "La Bella Ferrara Coffee Shop", "location": {"type": "Point", "coordinates": [-73.99830946009286, 40.71752686522029]}}
{"street": "Court Street", "name": "Marco Polo Rest E/S/C #508", "location": {"type": "Point", "coordinates": [-73.99586560966354, 40.68236117903273]}}
{"street": "Second Avenue", "name": "Dallas Bbq", "location": {"type": "Point", "coordinates": [-73.98758054828335, 40.72869644482421]}}
{"street": "Borden Avenue", "name": "Waterfront Crabhousee/S/C #530", "location": {"type": "Point", "coordinates": [-73.93866902925225, 40.74570244980828]}}
{"street": "Washington Street", "name": "Tortilla Flats Inc", "location": {"type": "Point", "coordinates": [-74.00821998885579, 40.73745584138959]}}
{"street": "Columbus Avenue", "name": "Pappardella", "location": {"type": "Point", "coordinates": [-73.97746649505467, 40.77928521534567]}}
{"street": "Macdougal Street", "name": "Dynamic Music Corp", "location": {"type": "Point", "coordinates": [-74.00039588720085, 40.73009039396965]}}
{"street": "3 Avenue", "name": "Mezzaluna Associates", "location": {"type": "Point", "coordinates": [-73.9595127077489, 40.77124337003039]}}
{"street": "Avenue A", "name": "Seven A Cafe Inc", "location": {"type": "Point", "coordinates": [-73.97911148500697, 40.72664935898081]}}
{"street": "Columbus Avenue", "name": "Jackson Hole S/C #594", "location": {"type": "Point", "coordinates": [-73.97265268041868, 40.78577087491027]}}
{"street": "Amsterdam Avenue", "name": "The Hungarian Pastry Shop", "location": {"type": "Point", "coordinates": [-73.96359374086383, 40.80339362533206]}}
{"street": "Irving Place", "name": "Friend Of A Farmer Corp", "location": {"type": "Point", "coordinates": [-73.98664760572923, 40.73696665103033]}}
{"street": "37 Avenue", "name": "Armondo's Restaurante/S/C #672", "location": {"type": "Point", "coordinates": [-73.88361254528269, 40.75163073936716]}}
{"street": "Spring Street", "name": "Mezzogiorno Assoc.", "location": {"type": "Point", "coordinates": [-74.00322875159316, 40.725162109249084]}}
{"street": "West 57 Street", "name": "Morning Star Rest E/Sc 674", "location": {"type": "Point", "coordinates": [-73.98578683753328, 40.76798495999973]}}
{"street": "Third Avenue", "name": "Due", "location": {"type": "Point", "coordinates": [-73.95713531657603, 40.77452192213532]}}
{"street": "Montague Street", "name": "La Traviata Restaurant", "location": {"type": "Point", "coordinates": [-73.99384577066294, 40.69469766790304]}}
{"street": "Irving Place", "name": "Choshi Japanese Restaurant", "location": {"type": "Point", "coordinates": [-73.98664760572923, 40.73696665103033]}}
{"street": "Columbus Avenue", "name": "Bella Luna", "location": {"type": "Point", "coordinates": [-73.97115359497411, 40.787941371886205]}}
{"street": "Ditmars Boulevard", "name": "Totore Pizzeria & Restuarant Inc.", "location": {"type": "Point", "coordinates": [-73.90960650023976, 40.780092072491186]}}
{"street": "East 22 Street", "name": "Lamarca Cheese Shop", "location": {"type": "Point", "coordinates": [-73.98453842244564, 40.73858694753217]}}
{"street": "Avenue A", "name": "Benny's Burritos", "location": {"type": "Point", "coordinates": [-73.97911148500697, 40.72664935898081]}}
{"street": "Macdougal Street", "name": "Feenjon Corp", "location": {"type": "Point", "coordinates": [-73.99789641059084, 40.72553802086304]}}
{"street": "3 Avenue", "name": "Areo Restaurant Corp", "location": {"type": "Point", "coordinates": [-74.0305295065066, 40.62486528874661]}}
{"street": "3 Avenue", "name": "Luke's Bar & Grill", "location": {"type": "Point", "coordinates": [-73.9570665518292, 40.77457086153879]}}
{"street": "Johnson Avenue", "name": "Corner Cafe & Bakery", "location": {"type": "Point", "coordinates": [-73.9097849476806, 40.886180449674036]}}
{"street": "Amsterdam Avenue", "name": "Hi Life Bar & Grill", "location": {"type": "Point", "coordinates": [-73.97654586698383, 40.78560554283831]}}
{"street": "Spring Street", "name": "Pomodoro Restaurant & Pizzeria Inc", "location": {"type": "Point", "coordinates": [-73.99639331720888, 40.72204547467682]}}
{"street": "10 Avenue", "name": "Don Giovanni", "location": {"type": "Point", "coordinates": [-74.0040672982759, 40.74777889260001]}}
{"street": "University Place", "name": "Japonica", "location": {"type": "Point", "coordinates": [-73.99278479393114, 40.73394555557729]}}
{"street": "Bleecker Street", "name": "Manatus Restaurant", "location": {"type": "Point", "coordinates": [-74.00447880921388, 40.733813587170914]}}
{"street": "Amsterdam Avenue", "name": "Hi-Life Restaurant", "location": {"type": "Point", "coordinates": [-73.97654586698383, 40.78560554283831]}}
{"street": "Third Avenue", "name": "200 East 81St Restaurant Corp.", "location": {"type": "Point", "coordinates": [-73.95633707584796, 40.77552652139294]}}
{"street": "Grand Street", "name": "Florios Enterprises Inc", "location": {"type": "Point", "coordinates": [-73.99705040925187, 40.71923557707595]}}
{"street": "Broadway", "name": "Wild Rose Management Inc", "location": {"type": "Point", "coordinates": [-73.96775464866774, 40.80119273394605]}}
{"street": "West 4 Street", "name": "Dojo West", "location": {"type": "Point", "coordinates": [-73.99366895842167, 40.728129871945725]}}
{"street": "Columbus Avenue", "name": "Firehouse Restaurant", "location": {"type": "Point", "coordinates": [-73.97263895589063, 40.78590150084545]}}
{"street": "East 74 Street", "name": "Vivolo", "location": {"type": "Point", "coordinates": [-73.96148222299303, 40.771827929349456]}}
{"street": "2 Avenue", "name": "The Stumble Inn", "location": {"type": "Point", "coordinates": [-73.95653595183188, 40.77129732935214]}}
{"street": "2 Avenue", "name": "Ryan's Irish Pub", "location": {"type": "Point", "coordinates": [-73.98699598896428, 40.72948784821]}}
{"street": "Broadway", "name": "Josephina", "location": {"type": "Point", "coordinates": [-73.98199663393459, 40.77135954602272]}}
{"street": "Columbus Avenue", "name": "Il Violino", "location": {"type": "Point", "coordinates": [-73.98058382289537, 40.77493958357081]}}
{"street": "Columbus Avenue", "name": "Burrito Junction Inc.", "location": {"type": "Point", "coordinates": [-73.97923345554365, 40.776745340637135]}}
{"street": "1 Avenue", "name": "Three Of Cups", "location": {"type": "Point", "coordinates": [-73.98654632794961, 40.725962505855136]}}
{"street": "30 Avenue", "name": "Athens Cafe", "location": {"type": "Point", "coordinates": [-73.92643545073543, 40.77152402451418]}}
{"street": "West 11 Street", "name": "French Roast Inc", "location": {"type": "Point", "coordinates": [-73.99756340730801, 40.735055727621386]}}
{"street": "Third Avenue", "name": "Bamiyan Restaurant", "location": {"type": "Point", "coordinates": [-73.98166300933053, 40.74085527866032]}}
{"street": "2 Avenue", "name": "Vino", "location": {"type": "Point", "coordinates": [-73.96088414689159, 40.76525388172523]}}
{"street": "2 Avenue", "name": "Divino Ristorante", "location": {"type": "Point", "coordinates": [-73.95422469421658, 40.7744629428953]}}
{"street": "Broadway", "name": "Cleopatras Needle.", "location": {"type": "Point", "coordinates": [-73.97365560962625, 40.79233732416694]}}
{"street": "Broadway", "name": "Tierras Colombianas Ii", "location": {"type": "Point", "coordinates": [-73.9316632529567, 40.761699790013324]}}
{"street": "Broadway", "name": "Niko's Mediterrean Grill And Bistro", "location": {"type": "Point", "coordinates": [-73.9810694567912, 40.78208919370377]}}
{"street": "Broadway", "name": "Niko's Mediterrean Grill And Bistro", "location": {"type": "Point", "coordinates": [-73.9810694567912, 40.78208919370377]}}
{"street": "Bleecker Street", "name": "Bleecker Trattoria, Inc.", "location": {"type": "Point", "coordinates": [-74.00250393710154, 40.73029495867493]}}
{"street": "Hudson Street", "name": "Bus Stop", "location": {"type": "Point", "coordinates": [-74.00591772446074, 40.73691624817201]}}
{"street": "70 Road", "name": "Cabana Restaurant And Bar", "location": {"type": "Point", "coordinates": [-73.84628429608335, 40.720707263029794]}}
{"street": "Avenue Of The Americas", "name": "Bar 6", "location": {"type": "Point", "coordinates": [-74.00460000028977, 40.74471526669623]}}
{"street": "Union Square West", "name": "Heartland Brewery", "location": {"type": "Point", "coordinates": [-73.99057529064089, 40.73681732274878]}}
{"street": "Hudson Street", "name": "Cowgirl, Inc", "location": {"type": "Point", "coordinates": [-74.0062504736116, 40.73390351937388]}}
{"street": "Third Avenue", "name": "Barfly", "location": {"type": "Point", "coordinates": [-73.9845328103094, 40.73699248853083]}}
{"street": "Seventh Avenue", "name": "Lekkas Restaurant Corporation", "location": {"type": "Point", "coordinates": [-73.9932732567288, 40.747384356593045]}}
{"street": "Mulberry Street", "name": "The Caffe Palermo", "location": {"type": "Point", "coordinates": [-73.9973890804017, 40.71907699671988]}}
{"street": "Bleecker Street", "name": "Cafe Espanol", "location": {"type": "Point", "coordinates": [-74.00056287297751, 40.72882671182167]}}
{"street": "West Broadway", "name": "The Odeon Inc", "location": {"type": "Point", "coordinates": [-74.00800910673831, 40.716999760104166]}}
{"street": "Spring Street", "name": "Restaurant Ventures Of Ny,Inc.", "location": {"type": "Point", "coordinates": [-74.00324673803374, 40.725171102469346]}}
{"street": "West 4 Street", "name": "Riviera Cafe", "location": {"type": "Point", "coordinates": [-74.0028671367192, 40.73401546913192]}}
{"street": "2 Avenue", "name": "Starbucks Coffee Co. #818", "location": {"type": "Point", "coordinates": [-73.95415274845425, 40.77456186831853]}}
{"street": "Lafayette Street", "name": "Starbucks Coffee Company", "location": {"type": "Point", "coordinates": [-73.99128876964679, 40.72996161666133]}}
{"street": "Thompson Street", "name": "Porto Bello Restaurant", "location": {"type": "Point", "coordinates": [-73.99931670076569, 40.728831343128604]}}
{"street": "Third Avenue", "name": "Moonstruck Diner", "location": {"type": "Point", "coordinates": [-73.97955859578195, 40.743742102374426]}}
{"street": "3 Avenue", "name": "Gramercy Cafe", "location": {"type": "Point", "coordinates": [-73.98585384998705, 40.73510861089312]}}
{"street": "East 5 Street", "name": "Maryann's D.F.", "location": {"type": "Point", "coordinates": [-73.98897444942646, 40.72674563891382]}}
{"street": "Amsterdam Avenue", "name": "Gilli Rest", "location": {"type": "Point", "coordinates": [-73.97785383922432, 40.78373675087649]}}
{"street": "Lexington Avenue", "name": "Lumi Corporation", "location": {"type": "Point", "coordinates": [-73.96308301620519, 40.76920190902388]}}
{"street": "East 22 Street", "name": "Novita", "location": {"type": "Point", "coordinates": [-73.98637545676405, 40.73931743799022]}}
{"street": "Lafayette Street", "name": "The Noho Star", "location": {"type": "Point", "coordinates": [-73.99468984356588, 40.725926175038914]}}
{"street": "2 Avenue", "name": "Veselka Enterprises Ltd", "location": {"type": "Point", "coordinates": [-73.98729276523397, 40.72908315329681]}}
{"street": "1 Avenue", "name": "Michael King Inc.", "location": {"type": "Point", "coordinates": [-73.95542079251555, 40.76860835648455]}}
{"street": "7 Avenue", "name": "Restivo Ristorante", "location": {"type": "Point", "coordinates": [-73.99603417535877, 40.743544251527965]}}
{"street": "Broadway", "name": "Carmine's", "location": {"type": "Point", "coordinates": [-73.9743605144526, 40.79095650891264]}}
{"street": "La Guardia Place", "name": "Silver Spurs Eatery", "location": {"type": "Point", "coordinates": [-73.99989346228452, 40.727006949523016]}}
{"street": "East 16 Street", "name": "Chat 'N Chew", "location": {"type": "Point", "coordinates": [-73.99245960604283, 40.737203218009554]}}
{"street": "West Broadway", "name": "Edward's", "location": {"type": "Point", "coordinates": [-74.00813904987314, 40.71687935335922]}}
{"street": "Mulberry Street", "name": "Da Nico Restaurant", "location": {"type": "Point", "coordinates": [-73.99715832789536, 40.71969423131094]}}
{"street": "2 Avenue", "name": "Three Decker Restaurant", "location": {"type": "Point", "coordinates": [-73.94946728068157, 40.78097403438744]}}
{"street": "Union Square West", "name": "Republic Restaurant", "location": {"type": "Point", "coordinates": [-73.99052133131914, 40.736889268511106]}}
{"street": "Crossbay Boulevard", "name": "Carosello Cafe", "location": {"type": "Point", "coordinates": [-73.84496263981396, 40.65817022817356]}}
{"street": "Second Avenue", "name": "Watson's", "location": {"type": "Point", "coordinates": [-73.95572656200551, 40.77239450222788]}}
{"street": "Columbus Avenue", "name": "Isabella's", "location": {"type": "Point", "coordinates": [-73.97641638674729, 40.78061390725591]}}
{"street": "Amsterdam Avenue", "name": "Gin Mill", "location": {"type": "Point", "coordinates": [-73.97724733816665, 40.78462528182638]}}
{"street": "2 Avenue", "name": "Pangea", "location": {"type": "Point", "coordinates": [-73.98619559235823, 40.730612000746646]}}
{"street": "Third Avenue", "name": "1291 Pub Inc.", "location": {"type": "Point", "coordinates": [-73.95956666707065, 40.77117142426806]}}
{"street": "3 Avenue", "name": "Blockheads", "location": {"type": "Point", "coordinates": [-73.97829055172065, 40.74549578033151]}}
{"street": "3 Avenue", "name": "Rodeo Bar And Grill", "location": {"type": "Point", "coordinates": [-73.98123133475644, 40.74145782441997]}}
{"street": "2 Avenue", "name": "The Stumble Inn", "location": {"type": "Point", "coordinates": [-73.95653595183188, 40.77129732935214]}}
{"street": "Broadway", "name": "Big Nick's Burger Joint & Pizza Joint", "location": {"type": "Point", "coordinates": [-73.96653900057436, 40.78362556816552]}}
{"street": "Second Avenue", "name": "Msd Enterprises,Inc", "location": {"type": "Point", "coordinates": [-73.98803020929796, 40.7280849058443]}}
{"street": "9 Avenue", "name": "Puttanesca", "location": {"type": "Point", "coordinates": [-73.9863214974423, 40.7670974954753]}}
{"street": "Hester Street", "name": "Caffe Napoli", "location": {"type": "Point", "coordinates": [-73.99781483297676, 40.71811142453936]}}
{"street": "Spring Street", "name": "Pao", "location": {"type": "Point", "coordinates": [-74.00911308010356, 40.72594706936591]}}
{"street": "Columbus Avenue", "name": "Prohibition", "location": {"type": "Point", "coordinates": [-73.97304471737428, 40.785253090251864]}}
{"street": "Ninth Avenue", "name": "Seta Restaurant Corp.", "location": {"type": "Point", "coordinates": [-73.99015260928712, 40.7618454548242]}}
{"street": "36 Street", "name": "Moheco,Inc.", "location": {"type": "Point", "coordinates": [-73.9316632529567, 40.761699790013324]}}
{"street": "East 19 Street", "name": "The Pipa", "location": {"type": "Point", "coordinates": [-73.98956493815646, 40.73829314748262]}}
{"street": "Avenue A", "name": "Nera Corp.", "location": {"type": "Point", "coordinates": [-73.97911148500697, 40.72664935898081]}}
{"street": "Mulberry Street", "name": "Angelo Of Mulberry Street Inc.", "location": {"type": "Point", "coordinates": [-73.99743669956042, 40.718975190242624]}}
{"street": "Lexington Avenue", "name": "Bella Cucina, Inc", "location": {"type": "Point", "coordinates": [-73.9548611399978, 40.78038900429782]}}
{"street": "Mott Street", "name": "Mottsu", "location": {"type": "Point", "coordinates": [-73.99437942282486, 40.72424480077916]}}
{"street": "Third Avenue", "name": "Ej's Luncheonette", "location": {"type": "Point", "coordinates": [-73.960007334865, 40.77056887850841]}}
{"street": "Roosevelt Avenue", "name": "Mcdonald's", "location": {"type": "Point", "coordinates": [-73.9048471440804, 40.74519376448069]}}
{"street": "Broadway", "name": "Sac's Place", "location": {"type": "Point", "coordinates": [-73.9316632529567, 40.761699790013324]}}
{"street": "1 Avenue", "name": "Cafe Focaccia, Inc.", "location": {"type": "Point", "coordinates": [-73.95977351113737, 40.762627864989724]}}
{"street": "York Avenue", "name": "Bagel Bob's On York", "location": {"type": "Point", "coordinates": [-73.94698170778466, 40.77605122741927]}}
{"street": "East 86 Street", "name": "Viand Restaurant Inc", "location": {"type": "Point", "coordinates": [-73.95167997542659, 40.77782606681636]}}
{"street": "30 Avenue", "name": "Gian & Piero Bakery", "location": {"type": "Point", "coordinates": [-73.91327185810974, 40.76286893025696]}}
{"street": "Broadway", "name": "Pollos Mario", "location": {"type": "Point", "coordinates": [-73.91327185810974, 40.76286893025696]}}
{"street": "East 49 Street", "name": "Smith & Wollensky", "location": {"type": "Point", "coordinates": [-73.97115452764089, 40.75519480868664]}}
{"street": "East 49 Street", "name": "Smith & Wollensky", "location": {"type": "Point", "coordinates": [-73.97115452764089, 40.75519480868664]}}
{"street": "3 Avenue", "name": "Atlantic Grill", "location": {"type": "Point", "coordinates": [-73.95853518892002, 40.77254040486646]}}
{"street": "Park Avenue South", "name": "City Crab & Seafood Co.", "location": {"type": "Point", "coordinates": [-73.98800322963712, 40.737851543082456]}}
{"street": "Hudson Street", "name": "Petite Abeille", "location": {"type": "Point", "coordinates": [-74.00655870149312, 40.731763439488326]}}
{"street": "Duane Street", "name": "City Hall Restaurant", "location": {"type": "Point", "coordinates": [-74.00738413249948, 40.716165623414625]}}
{"street": "Greenwich Street", "name": "Flor De Sol", "location": {"type": "Point", "coordinates": [-74.01029049794519, 40.71902579095857]}}
{"street": "Amsterdam Avenue", "name": "Bswr Corp.", "location": {"type": "Point", "coordinates": [-73.97772397884222, 40.783968776744985]}}
{"street": "Columbus Avenue", "name": "Bistro Cassis", "location": {"type": "Point", "coordinates": [-73.97956758900227, 40.77634252593651]}}
{"street": "Broadway", "name": "Mama Mexico", "location": {"type": "Point", "coordinates": [-73.96903439647322, 40.7982007345526]}}
{"street": "West 60 Street", "name": "Heledona, Inc", "location": {"type": "Point", "coordinates": [-73.9871826807627, 40.77106739750029]}}
{"street": "3 Avenue", "name": "Josie's", "location": {"type": "Point", "coordinates": [-73.97659963701241, 40.74779827229383]}}
{"street": "2 Avenue", "name": "Winebar", "location": {"type": "Point", "coordinates": [-73.9895358571618, 40.72609243259407]}}
{"street": "31 Street", "name": "Ukatosh Corp", "location": {"type": "Point", "coordinates": [-73.9316632529567, 40.761699790013324]}}
{"street": "Amsterdam Avenue", "name": "New Store Restaurant Corp", "location": {"type": "Point", "coordinates": [-73.97717203084368, 40.78466933493627]}}
{"street": "La Guardia Place", "name": "Tre-Giovani Inc", "location": {"type": "Point", "coordinates": [-73.99830931626734, 40.72886718978907]}}
{"street": "2 Avenue", "name": "Totonno's Pizzeria Napolitano", "location": {"type": "Point", "coordinates": [-73.95434160608039, 40.77430106493]}}
{"street": "Broadway", "name": "Deluxe On Broadway, Inc.", "location": {"type": "Point", "coordinates": [-73.96524300788494, 40.80594046623936]}}
{"street": "7 Avenue", "name": "Cafeteria", "location": {"type": "Point", "coordinates": [-73.99808462958555, 40.740747360016826]}}
{"street": "Broadway", "name": "Broadway Desserts, Ltd", "location": {"type": "Point", "coordinates": [-73.9769211176041, 40.78761556656549]}}
{"street": "Eighth Avenue", "name": "The Rocking Horse Mexican Cafe", "location": {"type": "Point", "coordinates": [-74.00014141406558, 40.74295780096177]}}
{"street": "Broadway", "name": "Le Monde", "location": {"type": "Point", "coordinates": [-73.96583186179622, 40.80559535688176]}}
{"street": "West 4 Street", "name": "Karavas Place Tavern", "location": {"type": "Point", "coordinates": [-74.00122571450645, 40.73183710942586]}}
{"street": "2 Avenue", "name": "Bread Of Life, Llc", "location": {"type": "Point", "coordinates": [-73.95042056203266, 40.779670017444914]}}
{"street": "First Avenue", "name": "1483 First Avenue Restaurant Inc.", "location": {"type": "Point", "coordinates": [-73.95347825693227, 40.77125236325071]}}
{"street": "First Avenue", "name": "Regional Thai Sawoy", "location": {"type": "Point", "coordinates": [-73.9535502026946, 40.77114444460716]}}
{"street": "Spring Street", "name": "Kana", "location": {"type": "Point", "coordinates": [-74.00940709393444, 40.72600747195662]}}
{"street": "Hudson Street", "name": "Philip Marie", "location": {"type": "Point", "coordinates": [-74.00594470412165, 40.73589102105859]}}
{"street": "2 Avenue", "name": "Takatsuki Corporation", "location": {"type": "Point", "coordinates": [-73.98887214913032, 40.73194394755518]}}
{"street": "Columbus Avenue", "name": "Nonna Restaurant", "location": {"type": "Point", "coordinates": [-73.97268629620226, 40.78583725327968]}}
{"street": "7 Avenue South", "name": "Empire Szechwan Village", "location": {"type": "Point", "coordinates": [-74.0013851414331, 40.73607987868479]}}
{"street": "Fort Hamilton Parkway", "name": "Rocco's Italian Cafeteria", "location": {"type": "Point", "coordinates": [-74.0086187468614, 40.631165321900916]}}
{"street": "Columbus Avenue", "name": "Assaggio", "location": {"type": "Point", "coordinates": [-73.97372199581184, 40.78436447843791]}}
{"street": "1 Avenue", "name": "Blue Moon Mexican Cafe", "location": {"type": "Point", "coordinates": [-73.9544854976051, 40.769876400545854]}}
{"street": "Hudson Street", "name": "La Ripaille Restaurant", "location": {"type": "Point", "coordinates": [-74.00577364392853, 40.73732047478242]}}
{"street": "Mott Street", "name": "Cafe Gitane", "location": {"type": "Point", "coordinates": [-73.99483354655025, 40.72309852241254]}}
{"street": "East 71 Street", "name": "Grace's Trattoria Cafe & Grill", "location": {"type": "Point", "coordinates": [-73.96107476739137, 40.769067963228416]}}
{"street": "2 Avenue", "name": "Pig Heaven Restaurant", "location": {"type": "Point", "coordinates": [-73.95442254506304, 40.77418415306619]}}
{"street": "East Fordham Road", "name": "Gyro King Foods Corp.", "location": {"type": "Point", "coordinates": [-73.90027711925939, 40.862441933494246]}}
{"street": "Amsterdam Avenue", "name": "Savann Restaurant", "location": {"type": "Point", "coordinates": [-73.97795780256985, 40.78365401403471]}}
{"street": "2 Avenue", "name": "Haveli Restaurant Inc.", "location": {"type": "Point", "coordinates": [-73.98864174827793, 40.72723954313676]}}
{"street": "Broadway", "name": "Manhattan Diner", "location": {"type": "Point", "coordinates": [-73.9806557686577, 40.7825208682778]}}
{"street": "Lexington Avenue", "name": "Orsay Restaurant", "location": {"type": "Point", "coordinates": [-73.96069981282756, 40.77248443443085]}}
{"street": "Second Avenue", "name": "Blockheads", "location": {"type": "Point", "coordinates": [-73.95406356529153, 40.774736252016936]}}
{"street": "West Broadway", "name": "Pepolino", "location": {"type": "Point", "coordinates": [-74.00511238444041, 40.72067583209848]}}
{"street": "Baxter Street", "name": "Jaya Malaysian Restaurant", "location": {"type": "Point", "coordinates": [-74.00002042693194, 40.716446620467494]}}
{"street": "Broadway", "name": "Henry's", "location": {"type": "Point", "coordinates": [-73.96804727380692, 40.80089401733642]}}
{"street": "Amsterdam Avenue", "name": "Citrus", "location": {"type": "Point", "coordinates": [-73.98007120933869, 40.7807581971004]}}
{"street": "2 Avenue", "name": "Frank Restaurant", "location": {"type": "Point", "coordinates": [-73.9888755720055, 40.72692478042649]}}
{"street": "Amsterdam Avenue", "name": "Strokos Gourmet Deli Inc", "location": {"type": "Point", "coordinates": [-73.96224091603351, 40.80524788244413]}}
{"street": "Roosevelt Avenue", "name": "Cositas Ricas Corp.", "location": {"type": "Point", "coordinates": [-73.88361254528269, 40.75163073936716]}}
{"street": "3 Avenue", "name": "Haru Third Avenue Corp.", "location": {"type": "Point", "coordinates": [-73.95867608269926, 40.77234597145114]}}
{"street": "Amsterdam Avenue", "name": "Haru", "location": {"type": "Point", "coordinates": [-73.97748824930082, 40.78423607851503]}}
{"street": "Broadway", "name": "Cosi, Inc.", "location": {"type": "Point", "coordinates": [-73.99097622768353, 40.73396689745794]}}
{"street": "Broadway", "name": "Marlow, Inc.", "location": {"type": "Point", "coordinates": [-73.96559728720135, 40.710525294276685]}}
{"street": "Amsterdam Avenue", "name": "Good Enough To Eat Uptown Ltd", "location": {"type": "Point", "coordinates": [-73.9763390229171, 40.78588433266742]}}
{"street": "Amsterdam Avenue", "name": "V & T Restaurant, Inc", "location": {"type": "Point", "coordinates": [-73.96376175670196, 40.80316537740104]}}
{"street": "2 Avenue", "name": "Silver Star Restaurant", "location": {"type": "Point", "coordinates": [-73.96169062415004, 40.76419534144042]}}
{"street": "2 Avenue", "name": "63Rd Street Bagel Cafe, Inc.", "location": {"type": "Point", "coordinates": [-73.96230959925998, 40.76338329549429]}}
{"street": "West Broadway", "name": "Petite Abeille", "location": {"type": "Point", "coordinates": [-74.00819300919488, 40.71681640081715]}}
{"street": "Carmine Street", "name": "Greenwich Village Bistro", "location": {"type": "Point", "coordinates": [-74.00229345668265, 40.73037817701902]}}
{"street": "3 Avenue", "name": "Brasserie Julien Corp", "location": {"type": "Point", "coordinates": [-73.95647299928982, 40.77538924458548]}}
{"street": "3 Avenue", "name": "Sts Restaurant Corp.", "location": {"type": "Point", "coordinates": [-73.97811003151637, 40.74569800065901]}}
{"street": "Great Jones Street", "name": "Five Points", "location": {"type": "Point", "coordinates": [-73.9931113787635, 40.72702370584972]}}
{"street": "Avenue C", "name": "Esperanto", "location": {"type": "Point", "coordinates": [-73.97911148500697, 40.72664935898081]}}
{"street": "West 12 Street", "name": "Village Den Restaurant", "location": {"type": "Point", "coordinates": [-74.00148938213121, 40.73759677059111]}}
{"street": "Broadway", "name": "Broadway & 166Th Llc", "location": {"type": "Point", "coordinates": [-73.94061695990078, 40.83967563964195]}}
{"street": "Seventh Avenue", "name": "Le Zie 2000", "location": {"type": "Point", "coordinates": [-73.99690651772715, 40.74237513288989]}}
{"street": "Broadway", "name": "Mill Korean Restaurant Inc.", "location": {"type": "Point", "coordinates": [-73.96554443848663, 40.80598422371241]}}
{"street": "Smith Street", "name": "Zaytoons", "location": {"type": "Point", "coordinates": [-73.99342596010705, 40.68227048189552]}}
{"street": "West 110 Street", "name": "Miss Mamies", "location": {"type": "Point", "coordinates": [-73.96015516341164, 40.801266799237524]}}
{"street": "Amsterdam Avenue", "name": "Brother Jimmy's West", "location": {"type": "Point", "coordinates": [-73.97757109409724, 40.78417562081171]}}
{"street": "3 Avenue", "name": "Osso Buco", "location": {"type": "Point", "coordinates": [-73.95067237220087, 40.783375224205656]}}
{"street": "Broadway", "name": "Mama Mexico", "location": {"type": "Point", "coordinates": [-73.96903439647322, 40.7982007345526]}}
{"street": "2 Avenue", "name": "China 1221 Inc", "location": {"type": "Point", "coordinates": [-73.96210308246661, 40.76373656706866]}}
{"street": "First Avenue", "name": "Mcdonalds", "location": {"type": "Point", "coordinates": [-73.98603371439293, 40.72664599059743]}}
{"street": "1 Avenue", "name": "Ritz Diner", "location": {"type": "Point", "coordinates": [-73.9606273913034, 40.76151805346937]}}
{"street": "Greenwich Avenue", "name": "Benny's Burritos", "location": {"type": "Point", "coordinates": [-74.01019960472792, 40.73358645135369]}}
{"street": "2 Avenue", "name": "First Avenue Brother Jimmy's, Llc", "location": {"type": "Point", "coordinates": [-73.95592758012785, 40.77217342745618]}}
{"street": "Amsterdam Avenue", "name": "Rancho", "location": {"type": "Point", "coordinates": [-73.97424360258879, 40.78875316994089]}}
{"street": "10 Avenue", "name": "44&X-Hells Kitchen", "location": {"type": "Point", "coordinates": [-73.99431811868772, 40.761150782003675]}}
{"street": "Columbus Avenue", "name": "Classic Food Inc", "location": {"type": "Point", "coordinates": [-73.97858965158112, 40.77763402589878]}}
{"street": "West 10 Street", "name": "Chow Bar And Grill", "location": {"type": "Point", "coordinates": [-74.00321975837284, 40.7342182820841]}}
{"street": "Broadway", "name": "Omonia Cafe,", "location": {"type": "Point", "coordinates": [-73.9316632529567, 40.761699790013324]}}
{"street": "8 Avenue", "name": "198 8Th Ave Rest. Corp", "location": {"type": "Point", "coordinates": [-73.99978434822094, 40.74352626508738]}}
{"street": "Mulberry Street", "name": "Lunella", "location": {"type": "Point", "coordinates": [-73.99700544315039, 40.72005396012264]}}
{"street": "Amsterdam Avenue", "name": "1274 Amsterdam Trattoria Inc", "location": {"type": "Point", "coordinates": [-73.95787594165557, 40.81118226135163]}}
{"street": "Avenue A", "name": "Italian Mother Corporation", "location": {"type": "Point", "coordinates": [-73.97911148500697, 40.72664935898081]}}
{"street": "1 Avenue", "name": "Baker Street", "location": {"type": "Point", "coordinates": [-73.96007028740706, 40.76221417685622]}}
{"street": "Amsterdam Avenue", "name": "Cafe Con Leche", "location": {"type": "Point", "coordinates": [-73.97766102630015, 40.78404971572763]}}
{"street": "St Marks Place", "name": "St Marks Cafe Inc", "location": {"type": "Point", "coordinates": [-73.98985996694526, 40.729497955625824]}}
{"street": "Broadway", "name": "Dallas Bbq", "location": {"type": "Point", "coordinates": [-73.94061695990078, 40.83967563964195]}}
{"street": "3 Avenue", "name": "La Cocina On Third Avenue, Inc.", "location": {"type": "Point", "coordinates": [-73.98000825679662, 40.743103583733614]}}
{"street": "Avenue A", "name": "Sidewalk Bar & Restaurant", "location": {"type": "Point", "coordinates": [-73.97911148500697, 40.72664935898081]}}
{"street": "Washington Street", "name": "Malatesta Trattoria", "location": {"type": "Point", "coordinates": [-74.00859770410807, 40.732869299040146]}}
{"street": "East Sixth Street", "name": "Banjara Dining Inc", "location": {"type": "Point", "coordinates": [-73.98749075837055, 40.72693846986774]}}
{"street": "30 Avenue", "name": "Athens Cafe", "location": {"type": "Point", "coordinates": [-73.92643545073543, 40.77152402451418]}}
{"street": "West 48 Street", "name": "C.A.P. Restaurant Corp.", "location": {"type": "Point", "coordinates": [-73.98709884784006, 40.7611043403546]}}
{"street": "3 Avenue", "name": "Paneantico Bakery Cafe Inc", "location": {"type": "Point", "coordinates": [-74.03270927207568, 40.61955057576124]}}
{"street": "Sullivan Street", "name": "172 Bleeker St. Rest., Inc", "location": {"type": "Point", "coordinates": [-74.00071485351239, 40.7285071149708]}}
{"street": "8 Avenue", "name": "Nisos Restaurant", "location": {"type": "Point", "coordinates": [-74.0003419278791, 40.74273486170159]}}
{"street": "Columbus Avenue", "name": "Cafe Frida", "location": {"type": "Point", "coordinates": [-73.97619160700835, 40.781023467294595]}}
{"street": "Ninth Avenue", "name": "953 Associates Llc", "location": {"type": "Point", "coordinates": [-73.98762551438477, 40.76528086497615]}}
{"street": "Hudson Street", "name": "Hudson Bar And Books", "location": {"type": "Point", "coordinates": [-74.00545310146136, 40.738728961957506]}}
{"street": "9 Avenue", "name": "Dana's Llc", "location": {"type": "Point", "coordinates": [-73.99144337685128, 40.75999274901747]}}
{"street": "Union Turnpike", "name": "Acquista Trattoria", "location": {"type": "Point", "coordinates": [-73.79226817393703, 40.72816440726166]}}
{"street": "1 Avenue", "name": "Cilantro", "location": {"type": "Point", "coordinates": [-73.95658091793337, 40.766998570052124]}}
{"street": "Amsterdam Avenue", "name": "Jakes' Dilemma", "location": {"type": "Point", "coordinates": [-73.97751713477544, 40.784247566574095]}}
{"street": "East 2 Street", "name": "Raguboy Corp.", "location": {"type": "Point", "coordinates": [-73.98535022965069, 40.722814878752615]}}
{"street": "Sixth Avenue", "name": "Bar Giacosa Corp", "location": {"type": "Point", "coordinates": [-74.00241936176678, 40.72921805160121]}}
{"street": "9Th Avenue", "name": "The Original Homestead Restaurant Inc", "location": {"type": "Point", "coordinates": [-74.00523516831409, 40.741293614882146]}}
{"street": "9 Avenue", "name": "Xie Xie", "location": {"type": "Point", "coordinates": [-73.99120690947532, 40.76043781459542]}}
{"street": "Smith Street", "name": "Moulinas, Llc", "location": {"type": "Point", "coordinates": [-73.99004525014364, 40.687349178538916]}}
{"street": "Ninth Avenue", "name": "659 Rest. Inc", "location": {"type": "Point", "coordinates": [-73.99093501945259, 40.76077526160935]}}
{"street": "Spring Street", "name": "Bistro Les Amis", "location": {"type": "Point", "coordinates": [-74.0025092939697, 40.72482036687791]}}
{"street": "Broadway", "name": "Lime Leaf", "location": {"type": "Point", "coordinates": [-73.96773046605493, 40.80296588109922]}}
{"street": "3 Avenue", "name": "Cosmic Cantina", "location": {"type": "Point", "coordinates": [-73.98764150363601, 40.7326062845577]}}
{"street": "Avenue C", "name": "Zumschneider Corp", "location": {"type": "Point", "coordinates": [-73.97911148500697, 40.72664935898081]}}
{"street": "Bleecker Street", "name": "Caliente Grill", "location": {"type": "Point", "coordinates": [-74.00334566345697, 40.73183507870647]}}
{"street": "3 Avenue", "name": "Grouben Food Corp.", "location": {"type": "Point", "coordinates": [-73.97784089070603, 40.74612530575206]}}
{"street": "Bedford Avenue", "name": "Verb, Inc.", "location": {"type": "Point", "coordinates": [-73.95895621656251, 40.71673610367515]}}
{"street": "Columbus Avenue", "name": "Cmr Corp", "location": {"type": "Point", "coordinates": [-73.97994335610099, 40.774536138232236]}}
{"street": "33 Street", "name": "Krilic Enterprises, Inc.", "location": {"type": "Point", "coordinates": [-73.92643545073543, 40.77152402451418]}}
{"street": "First Avenue", "name": "Mannaggia, Inc.", "location": {"type": "Point", "coordinates": [-73.98434298897786, 40.728930268551835]}}
{"street": "Second Avenue", "name": "Arkady Inc.", "location": {"type": "Point", "coordinates": [-73.95583448064906, 40.772241617482905]}}
{"street": "3 Avenue", "name": "513 Third Rest. Ltd", "location": {"type": "Point", "coordinates": [-73.9778768635872, 40.74607134643031]}}
{"street": "Ditmars Boulevard", "name": "31St Street Pizza Palace Inc", "location": {"type": "Point", "coordinates": [-73.90960650023976, 40.780092072491186]}}
{"street": "7 Avenue", "name": "160 Bistro, Inc.", "location": {"type": "Point", "coordinates": [-73.99715832789536, 40.74202439729845]}}
{"street": "East 52 Street", "name": "Opal", "location": {"type": "Point", "coordinates": [-73.96867806062862, 40.7566171599577]}}
{"street": "East 60 Street", "name": "Patsy's", "location": {"type": "Point", "coordinates": [-73.96561011110754, 40.76195337346775]}}
{"street": "Third Avenue", "name": "Haru Sake Bar", "location": {"type": "Point", "coordinates": [-73.95878425690512, 40.77225960392349]}}
{"street": "East 60 Street", "name": "Brasserie 360", "location": {"type": "Point", "coordinates": [-73.96607372754764, 40.76212551749767]}}
{"street": "Bond Street", "name": "Il Buco Corp.", "location": {"type": "Point", "coordinates": [-73.99347669817425, 40.7262824743866]}}
{"street": "West 23 Street", "name": "The Half King", "location": {"type": "Point", "coordinates": [-74.00460000028977, 40.74471526669623]}}
{"street": "Broadway", "name": "The Westside Of Broadway Rest Group Inc.", "location": {"type": "Point", "coordinates": [-73.968143692378, 40.800454795505345]}}
{"street": "1 Avenue", "name": "Bar Coastal", "location": {"type": "Point", "coordinates": [-73.95309154845967, 40.77178296324797]}}
{"street": "Perry Street", "name": "The Otheroom Inc.", "location": {"type": "Point", "coordinates": [-74.00796817868758, 40.73485680072491]}}
{"street": "West Broadway", "name": "Anotheroom Inc.", "location": {"type": "Point", "coordinates": [-74.00578094719008, 40.71981135948726]}}
{"street": "Broadway", "name": "El Conde Restaurant", "location": {"type": "Point", "coordinates": [-73.93849350096049, 40.84620321239999]}}
{"street": "Avenue K", "name": "1111 Ave K Inc.", "location": {"type": "Point", "coordinates": [-73.96551106018723, 40.62192951023877]}}
{"street": "North Moore Street", "name": "Reba Realty Corp.", "location": {"type": "Point", "coordinates": [-74.00686554410684, 40.719770506098854]}}
{"street": "Steinway Street", "name": "Yianni's Cafe Inc", "location": {"type": "Point", "coordinates": [-73.91327185810974, 40.76286893025696]}}
{"street": "North 5 Street", "name": "Fabiane's Cafe & Pastry", "location": {"type": "Point", "coordinates": [-73.95889489759621, 40.716690325417076]}}
{"street": "West 79 Street", "name": "Renolta Llc", "location": {"type": "Point", "coordinates": [-73.97835560138569, 40.78320260973434]}}
{"street": "Seventh Avenue", "name": "Elmo", "location": {"type": "Point", "coordinates": [-73.99726624653891, 40.74187151255347]}}
{"street": "Third Avenue", "name": "Fetch", "location": {"type": "Point", "coordinates": [-73.95101069681128, 40.782841079998974]}}
{"street": "Broadway", "name": "Hot & Cryspy", "location": {"type": "Point", "coordinates": [-73.96804727380692, 40.79985080378242]}}
{"street": "Amsterdam Avenue", "name": "1262 Amsterdam Cafe Inc", "location": {"type": "Point", "coordinates": [-73.95824169431991, 40.81073154758855]}}
{"street": "East 27 Street", "name": "Blue Smoke Llc", "location": {"type": "Point", "coordinates": [-73.98371346355736, 40.74235714644925]}}
{"street": "30 Avenue", "name": "Y.N.L.C. Cafe Corp.", "location": {"type": "Point", "coordinates": [-73.91327185810974, 40.76286893025696]}}
{"street": "Lasalle Street", "name": "Pisticci Restaurant", "location": {"type": "Point", "coordinates": [-73.96002899342801, 40.81394174943862]}}
{"street": "Greenwich Avenue", "name": "Fiddlesticks Llc", "location": {"type": "Point", "coordinates": [-74.00460000028977, 40.74471526669623]}}
{"street": "Franklin Street", "name": "Pencil Factory", "location": {"type": "Point", "coordinates": [-73.95757574359082, 40.72986594053074]}}
{"street": "Amsterdam Avenue", "name": "Bistro Ten Eighteen", "location": {"type": "Point", "coordinates": [-73.96390132217415, 40.802975016469574]}}
{"street": "Quentin Road", "name": "K H Amazon Cafe", "location": {"type": "Point", "coordinates": [-73.96168989545271, 40.60790078924288]}}
{"street": "Mulberry Street", "name": "Buona Notte Inc", "location": {"type": "Point", "coordinates": [-73.99812060246671, 40.717823641489986]}}
{"street": "East 85 Street", "name": "Lupi Llc", "location": {"type": "Point", "coordinates": [-73.95109476043709, 40.776737194191526]}}
{"street": "Hudson Street", "name": "Dublin 6/Topsy", "location": {"type": "Point", "coordinates": [-74.00590873124048, 40.736106858345636]}}
{"street": "7 Avenue", "name": "Salsa Y Salsa Mexican Kitchen", "location": {"type": "Point", "coordinates": [-73.9960140908879, 40.74362480925161]}}
{"street": "7 Avenue", "name": "Regional Thai Ltd", "location": {"type": "Point", "coordinates": [-73.99597182275735, 40.743682447611434]}}
{"street": "Mulberry Street", "name": "Mrg Restaurant Corp", "location": {"type": "Point", "coordinates": [-73.99809362280587, 40.71786860759141]}}
{"street": "70 Road", "name": "Narita Japanese Restaurant Inc.", "location": {"type": "Point", "coordinates": [-73.84628429608335, 40.720707263029794]}}
{"street": "Third Avenue", "name": "Lenox Room Corp", "location": {"type": "Point", "coordinates": [-73.95992840352812, 40.77072930800743]}}
{"street": "East 11 Street", "name": "Veniero's Pasticceria & Cafe", "location": {"type": "Point", "coordinates": [-73.98537428829303, 40.7299170399347]}}
{"street": "First Avenue", "name": "Merchants Ny", "location": {"type": "Point", "coordinates": [-73.9607959893368, 40.76128586578009]}}
{"street": "Lincoln Plaza", "name": "Fiorello's Roman Cafe, Inc.", "location": {"type": "Point", "coordinates": [-74.06874064929302, 40.60484759929123]}}
{"street": "Amsterdam Avenue", "name": "Dive Bar", "location": {"type": "Point", "coordinates": [-73.9705114161672, 40.79385232584701]}}
{"street": "2 Avenue", "name": "Mediterraneo", "location": {"type": "Point", "coordinates": [-73.96112084844971, 40.7649368707099]}}
{"street": "Ninth Avenue", "name": "44 And 9Th Restaurant, Inc.", "location": {"type": "Point", "coordinates": [-73.99160951097457, 40.759830973478586]}}
{"street": "Third Avenue", "name": "The 8801 Corp", "location": {"type": "Point", "coordinates": [-74.03161261078446, 40.62202615848288]}}
{"street": "Amsterdam Avenue", "name": "Talias Restaurant Group Llc", "location": {"type": "Point", "coordinates": [-73.97199737705657, 40.79188327963856]}}
{"street": "Tenth Avenue", "name": "Jake's Saloon", "location": {"type": "Point", "coordinates": [-73.98844389743147, 40.76930083444711]}}
{"street": "Mott Street", "name": "The Original Vincent's, Established 1904 Inc.", "location": {"type": "Point", "coordinates": [-73.99715832789536, 40.71776968216824]}}
{"street": "6 Avenue", "name": "La Palapa Rockola", "location": {"type": "Point", "coordinates": [-74.00063365618401, 40.73220811036603]}}
{"street": "West 23 Street", "name": "23Rd & 9Th Restaurant Corp", "location": {"type": "Point", "coordinates": [-74.00112433804458, 40.746422082021695]}}
{"street": "Bleeker Street", "name": "Le Figaro Cafe", "location": {"type": "Point", "coordinates": [-74.00068367025023, 40.728921275331516]}}
{"street": "Ludlow Street", "name": "Inoteca", "location": {"type": "Point", "coordinates": [-73.98833706507614, 40.72020219772711]}}
{"street": "33 Street", "name": "Krilic Enterprise Inc", "location": {"type": "Point", "coordinates": [-73.92643545073543, 40.77152402451418]}}
{"street": "Second Avenue", "name": "Old Heidelberg Corp.", "location": {"type": "Point", "coordinates": [-73.95197638914334, 40.77753862423549]}}
{"street": "10 Avenue", "name": "Moran's", "location": {"type": "Point", "coordinates": [-74.0058907447999, 40.74534289558653]}}
{"street": "8 Avenue", "name": "Spartan Souvlaki", "location": {"type": "Point", "coordinates": [-74.01447128134997, 40.63080107606167]}}
{"street": "1 Avenue", "name": "Simone Esspresso & Little Bar", "location": {"type": "Point", "coordinates": [-73.985287691226, 40.72755850555485]}}
{"street": "Mulberry Street", "name": "Jvc Pizzeria, Inc", "location": {"type": "Point", "coordinates": [-73.99766194823178, 40.718588065214874]}}
{"street": "Church Street", "name": "Bread In Tribeca Llc", "location": {"type": "Point", "coordinates": [-74.00434405130181, 40.719472294491936]}}
{"street": "Quentin Road", "name": "Sunflower Cafe", "location": {"type": "Point", "coordinates": [-73.96073583352499, 40.608021994864266]}}
{"street": "Grand Street", "name": "Clem's", "location": {"type": "Point", "coordinates": [-73.95840388492438, 40.7133013977337]}}
{"street": "Amsterdam Avenue", "name": "Celeste Restaurant", "location": {"type": "Point", "coordinates": [-73.9758174161401, 40.78657681062998]}}
{"street": "Broadway", "name": "107 West Restaurant", "location": {"type": "Point", "coordinates": [-73.96788256493512, 40.80250399012003]}}
{"street": "Mulberry Street", "name": "Grotta Azzurra Inn Inc.", "location": {"type": "Point", "coordinates": [-73.99687462153831, 40.720459120381996]}}
{"street": "7 Avenue", "name": "The Triple Crown", "location": {"type": "Point", "coordinates": [-73.99308439910266, 40.74764515998157]}}
{"street": "35 Avenue", "name": "Uno Of Astoria, Inc.", "location": {"type": "Point", "coordinates": [-73.93866902925225, 40.74570244980828]}}
{"street": "Hudson Street", "name": "Babu Food, Inc.", "location": {"type": "Point", "coordinates": [-74.00654686641522, 40.73183444995576]}}
{"street": "Union Square West", "name": "Coffee Shop", "location": {"type": "Point", "coordinates": [-73.99090803979175, 40.736358668513844]}}
{"street": "Amsterdam Avenue", "name": "412 Amsterdam Corp.", "location": {"type": "Point", "coordinates": [-73.97800276867127, 40.7835910614927]}}
{"street": "Mulberry Street", "name": "Sambuca's", "location": {"type": "Point", "coordinates": [-73.99850289466156, 40.71730591451807]}}
{"street": "Hudson Street", "name": "675 Hudson Vault, Llc", "location": {"type": "Point", "coordinates": [-74.00528337692086, 40.740270215845584]}}
{"street": "Bleecker Street", "name": "L'Atre Enterprises, Inc", "location": {"type": "Point", "coordinates": [-74.00399662046419, 40.732883397274556]}}
{"street": "Third Avenue", "name": "Eli's Manhattan Warehouse Inc.", "location": {"type": "Point", "coordinates": [-73.95660125169407, 40.775151391691466]}}
{"street": "West 72 Street", "name": "My Favarite Bistro", "location": {"type": "Point", "coordinates": [-73.97863229409177, 40.77734077338903]}}
{"street": "Greenwich Avenue", "name": "Mestizo Inc", "location": {"type": "Point", "coordinates": [-74.00155410150364, 40.73726775269976]}}
{"street": "Steinway Street", "name": "Olympian Summit Inc.", "location": {"type": "Point", "coordinates": [-73.93866902925225, 40.74570244980828]}}
{"street": "Greenwich Avenue", "name": "Wogie's, Inc.", "location": {"type": "Point", "coordinates": [-74.00044085330234, 40.73546833970482]}}
{"street": "Seventh Avenue", "name": "Merchants Ny", "location": {"type": "Point", "coordinates": [-73.9984929233543, 40.74024102692075]}}
{"street": "Mulberry Street", "name": "Carmine Restaurant Inc.", "location": {"type": "Point", "coordinates": [-73.99801518539697, 40.71805373539042]}}
{"street": "East 30 Street", "name": "30 E 30 Zana Inc", "location": {"type": "Point", "coordinates": [-73.98469971814558, 40.74516932195915]}}
{"street": "Ditmars Boulevard", "name": "Seven One Eight", "location": {"type": "Point", "coordinates": [-73.90960650023976, 40.780092072491186]}}
{"street": "Little West 12 Street", "name": "One Little West 12", "location": {"type": "Point", "coordinates": [-74.00635602712215, 40.739592909528035]}}
{"street": "Third Avenue", "name": "Uptown", "location": {"type": "Point", "coordinates": [-73.95274980608855, 40.780470414051024]}}
{"street": "Metropolitan Avenue", "name": "Theater Cafe", "location": {"type": "Point", "coordinates": [-73.84628429608335, 40.720707263029794]}}
{"street": "Steinway Street", "name": "Racks Cafe Billiards, Inc.", "location": {"type": "Point", "coordinates": [-73.90960650023976, 40.780092072491186]}}
{"street": "Macdougal Street", "name": "Macdougal Bleecker Corp.", "location": {"type": "Point", "coordinates": [-74.00124532570376, 40.729147020602696]}}
{"street": "Broadway", "name": "King Luke Inc", "location": {"type": "Point", "coordinates": [-73.96573950699626, 40.71054220152503]}}
{"street": "Carmine Street", "name": "Oreste Inc.", "location": {"type": "Point", "coordinates": [-74.00409571201304, 40.72978045430651]}}
{"street": "Fifth Avenue", "name": "Mezcals Of 5Th Ave Rest Corp.", "location": {"type": "Point", "coordinates": [-73.98083561752735, 40.67577820017742]}}
{"street": "9 Avenue", "name": "Portici Restaurant Inc", "location": {"type": "Point", "coordinates": [-73.99176239571955, 40.75961513619154]}}
{"street": "Mulberry Street", "name": "Mulberry Street Bar Llc", "location": {"type": "Point", "coordinates": [-74.00888900022716, 40.721242188776046]}}
{"street": "Amsterdam Avenue", "name": "Bello Sguardo", "location": {"type": "Point", "coordinates": [-73.97803874155244, 40.7835371021709]}}
{"street": "Lexington Avenue", "name": "Mon Petit Cafe Inc.", "location": {"type": "Point", "coordinates": [-73.96688714838916, 40.76400382769452]}}
{"street": "Vernon Boulevard", "name": "Bella Via Restaurant", "location": {"type": "Point", "coordinates": [-73.93866902925225, 40.74570244980828]}}
{"street": "7 Avenue", "name": "Fillip's Catering, Inc.", "location": {"type": "Point", "coordinates": [-73.99614089529724, 40.74345189414794]}}
{"street": "Metropolitan Avenue", "name": "Zipi Zape", "location": {"type": "Point", "coordinates": [-73.96197996462257, 40.715929495876104]}}
{"street": "Second Avenue", "name": "Cafe Centosette", "location": {"type": "Point", "coordinates": [-73.98669921269459, 40.729892543123185]}}
{"street": "Fifth Avenue", "name": "Stone Park Corner Llc", "location": {"type": "Point", "coordinates": [-73.983297205538, 40.67282734007605]}}
{"street": "East 45 Street", "name": "Riingo Restaurant Llc", "location": {"type": "Point", "coordinates": [-73.9726248229361, 40.75251948538039]}}
{"street": "Leonard Street", "name": "Tk Rest. Corp.", "location": {"type": "Point", "coordinates": [-74.00730932818166, 40.7184092746876]}}
{"street": "West 4 Street", "name": "Facosull Corp.", "location": {"type": "Point", "coordinates": [-74.00145708719543, 40.73211386853558]}}
{"street": "31 Street", "name": "Pandbakery Inc", "location": {"type": "Point", "coordinates": [-73.90960650023976, 40.780092072491186]}}
{"street": "West 46 Street", "name": "Emporium Brasil Inc.", "location": {"type": "Point", "coordinates": [-73.9800262432372, 40.75644952264838]}}
{"street": "Third Avenue", "name": "Sofia", "location": {"type": "Point", "coordinates": [-74.03049206901562, 40.62495465566055]}}
{"street": "Second Avenue", "name": "1226 Second Avenue Realty Corp.", "location": {"type": "Point", "coordinates": [-73.96191389756711, 40.76394087515246]}}
{"street": "3 Avenue", "name": "Bistro Le Steak", "location": {"type": "Point", "coordinates": [-73.95926089758069, 40.77157611918125]}}
{"street": "East 69 Street", "name": "Thierry Inc.", "location": {"type": "Point", "coordinates": [-73.96677959944591, 40.769845525034576]}}
{"street": "West 14 Street", "name": "Son Cubano", "location": {"type": "Point", "coordinates": [-74.00599866344339, 40.74122400069234]}}
{"street": "Avenue A", "name": "Yuca Bar & Restaurant", "location": {"type": "Point", "coordinates": [-73.97911148500697, 40.72664935898081]}}
{"street": "East 65 Street", "name": "Terramare Cafe", "location": {"type": "Point", "coordinates": [-73.96909199121528, 40.7674851701125]}}
{"street": "Fifth Avenue", "name": "Chriswill Ventures, Llc", "location": {"type": "Point", "coordinates": [-73.99576437874998, 40.733040170225706]}}
{"street": "Canal Street", "name": "Les Enfants Terribles", "location": {"type": "Point", "coordinates": [-73.99103394487582, 40.71464004150624]}}
{"street": "23 Avenue", "name": "Zorba's", "location": {"type": "Point", "coordinates": [-73.90960650023976, 40.780092072491186]}}
{"street": "Broadway", "name": "Ps Brothers Gourmet, Inc.", "location": {"type": "Point", "coordinates": [-73.9698565351081, 40.797082142904394]}}
{"street": "West 55 Street", "name": "Serafina Broadway Ltd", "location": {"type": "Point", "coordinates": [-73.98167709030456, 40.76449163918861]}}
{"street": "East 63 Street", "name": "Poupetto Inc.", "location": {"type": "Point", "coordinates": [-73.96951334946928, 40.76609500219196]}}
{"street": "West 54 Street", "name": "Iguana New York Ltd.", "location": {"type": "Point", "coordinates": [-73.98323535185993, 40.76430709925716]}}
{"street": "West 55 Street", "name": "Applejack Coffee Shop Inc.", "location": {"type": "Point", "coordinates": [-73.98251225743059, 40.76483650376538]}}
{"street": "East 62 Street", "name": "Amaranth", "location": {"type": "Point", "coordinates": [-73.97043947040487, 40.76563160056759]}}
{"street": "West 44 Street", "name": "356 West 44Th St. Restaurant Inc.", "location": {"type": "Point", "coordinates": [-73.9911868296208, 40.75952520398863]}}
{"street": "Madison Avenue", "name": "K.K.& D. Of 79Th St. Rest. Corp.", "location": {"type": "Point", "coordinates": [-73.96226463315855, 40.77611769542921]}}
{"street": "Madison Avenue", "name": "E. A. T. Is Owned By Eli Zabar Inc.", "location": {"type": "Point", "coordinates": [-73.96141927045102, 40.77727782084702]}}
{"street": "Second Avenue", "name": "Posto, Inc.", "location": {"type": "Point", "coordinates": [-73.98303897203539, 40.734964719368406]}}
{"street": "Amsterdam Avenue", "name": "1207 Amsterdam Corp", "location": {"type": "Point", "coordinates": [-73.95946195671338, 40.80895312367629]}}
{"street": "3 Avenue", "name": "Sts Restaurant Corp", "location": {"type": "Point", "coordinates": [-73.97811003151637, 40.74569800065901]}}
{"street": "Broadway", "name": "Three Friends Llc", "location": {"type": "Point", "coordinates": [-73.97491731029959, 40.790142376830666]}}
{"street": "Prince Street", "name": "Service Corp", "location": {"type": "Point", "coordinates": [-73.99438841604513, 40.722814878752615]}}
{"street": "East 85 Street", "name": "Louya Corp", "location": {"type": "Point", "coordinates": [-73.95296667956859, 40.776344978837756]}}
{"street": "East 51 Street", "name": "Thafath Inc", "location": {"type": "Point", "coordinates": [-73.96673630529972, 40.75490612537778]}}
{"street": "Spring Street", "name": "Spring Leopard Llc", "location": {"type": "Point", "coordinates": [-74.00843582614277, 40.72591753975365]}}
{"street": "Lexington Avenue", "name": "Burger Heaven", "location": {"type": "Point", "coordinates": [-73.96673426364413, 40.764201678540985]}}
{"street": "Greenwich Street", "name": "Gigino Trattoria", "location": {"type": "Point", "coordinates": [-74.01068413121607, 40.71726606183182]}}
{"street": "3 Avenue", "name": "Per Tavern Corp", "location": {"type": "Point", "coordinates": [-74.03116880032297, 40.623299300631516]}}
{"street": "West 42 Street", "name": "Chez Josephine Ltd.", "location": {"type": "Point", "coordinates": [-73.99344412791436, 40.758760780263685]}}
{"street": "West 231 Street", "name": "Dale Restaurant Inc.", "location": {"type": "Point", "coordinates": [-73.90399361432337, 40.87864618510202]}}
{"street": "7 Avenue South", "name": "Bleecker Street Pizza", "location": {"type": "Point", "coordinates": [-74.01019960472792, 40.73358645135369]}}
{"street": "Lexington Avenue", "name": "Brio", "location": {"type": "Point", "coordinates": [-73.96715694499795, 40.76361711922192]}}
{"street": "Park Avenue South", "name": "La Boucherie, Inc.", "location": {"type": "Point", "coordinates": [-73.97823298586354, 40.745242969987146]}}
{"street": "Columbus Avenue", "name": "Flej Inc.", "location": {"type": "Point", "coordinates": [-73.97947765679936, 40.77645943780033]}}
{"street": "West 14 Street", "name": "Caswell/Pearson Enterprises, Ltd.", "location": {"type": "Point", "coordinates": [-74.00018904313413, 40.73876885155238]}}
{"street": "9 Avenue", "name": "Pastis", "location": {"type": "Point", "coordinates": [-74.00545167427691, 40.74097132017101]}}
{"street": "Allen Street", "name": "Noteworthy Cafe Corp", "location": {"type": "Point", "coordinates": [-73.98867901050107, 40.72277969032105]}}
{"street": "East 19 Street", "name": "Pq Broadway, Inc.", "location": {"type": "Point", "coordinates": [-73.98956493815646, 40.73829314748262]}}
{"street": "West 26 Street", "name": "Pars Grill House & Bar", "location": {"type": "Point", "coordinates": [-73.99638491095016, 40.74690771591753]}}
{"street": "West 104 Street", "name": "Cafe Du Soleil", "location": {"type": "Point", "coordinates": [-73.96854805351344, 40.79995343727105]}}
{"street": "6 Avenue", "name": "Da Silvano Corp.", "location": {"type": "Point", "coordinates": [-74.00251828719001, 40.72903818719533]}}
{"street": "Ninth Avenue", "name": "Spice Market", "location": {"type": "Point", "coordinates": [-74.01019960472792, 40.73358645135369]}}
{"street": "Thompson Street", "name": "Da'Massimo And Caffe Rellini", "location": {"type": "Point", "coordinates": [-73.99943719416973, 40.72863958746575]}}
{"street": "East 20 Street", "name": "Lucifer Restaurant Llc", "location": {"type": "Point", "coordinates": [-73.97983535151856, 40.73502958827221]}}
{"street": "9 Avenue", "name": "202", "location": {"type": "Point", "coordinates": [-74.00478864041595, 40.741880143007116]}}
{"street": "2 Avenue", "name": "Point Judith Llc", "location": {"type": "Point", "coordinates": [-73.98873168048084, 40.72712263127295]}}
{"street": "Third Avenue", "name": "Kedros Ltd", "location": {"type": "Point", "coordinates": [-73.95453945692685, 40.77805123779217]}}
{"street": "Carmine Street", "name": "Mr. Dennehy's", "location": {"type": "Point", "coordinates": [-74.0044608227733, 40.72969469227672]}}
{"street": "Gansevoort Street", "name": "Macelleria", "location": {"type": "Point", "coordinates": [-74.0065276389733, 40.73937694566355]}}
{"street": "Stanton Street", "name": "Epstein Bar", "location": {"type": "Point", "coordinates": [-73.98883959912433, 40.72155582791157]}}
{"street": "2 Avenue", "name": "Cacio & Pepe", "location": {"type": "Point", "coordinates": [-73.98611465337558, 40.7307289126104]}}
{"street": "2 Avenue", "name": "La Mangeoire", "location": {"type": "Point", "coordinates": [-73.96694914522031, 40.756969335352586]}}
{"street": "Broadway", "name": "Picnic Market Cafe", "location": {"type": "Point", "coordinates": [-73.96944472299376, 40.79809192453755]}}
{"street": "Central Park South", "name": "Sbcps,Llc", "location": {"type": "Point", "coordinates": [-73.97423991446307, 40.76482143266113]}}
{"street": "Mulberry Street", "name": "Casa Bella Restaurant", "location": {"type": "Point", "coordinates": [-73.99796641447898, 40.71812851746468]}}
{"street": "Grand Street", "name": "Urban Rustic Llc", "location": {"type": "Point", "coordinates": [-73.9567892429216, 40.712712228452865]}}
{"street": "9 Avenue", "name": "Dalton's Bar & Grill", "location": {"type": "Point", "coordinates": [-73.99197823300659, 40.75931835992185]}}
{"street": "Columbus Avenue", "name": "62 West Operating Llc", "location": {"type": "Point", "coordinates": [-73.9824621464592, 40.77236203493421]}}
{"street": "Columbus Avenue", "name": "Ocean Grill", "location": {"type": "Point", "coordinates": [-73.97585075552976, 40.78149072654216]}}
{"street": "Third Avenue", "name": "Vertigo", "location": {"type": "Point", "coordinates": [-73.98188783983784, 40.740558502390684]}}
{"street": "Second Avenue", "name": "Orama Inc.", "location": {"type": "Point", "coordinates": [-73.95928330400415, 40.76758915304997]}}
{"street": "East 34 Street", "name": "Twelve", "location": {"type": "Point", "coordinates": [-73.97768800596106, 40.745540746432994]}}
{"street": "2 Avenue", "name": "Gisella & Kate Cafe Inc", "location": {"type": "Point", "coordinates": [-73.98927127369842, 40.72640317364949]}}
{"street": "Christopher Street", "name": "The Duplex", "location": {"type": "Point", "coordinates": [-74.00238189564706, 40.73370057944451]}}
{"street": "Fourth Avenue", "name": "Maria Louisa Restaurant Inc", "location": {"type": "Point", "coordinates": [-74.03377024804492, 40.6127447036305]}}
{"street": "5 Avenue", "name": "Mangia Inc.", "location": {"type": "Point", "coordinates": [-73.97865814251078, 40.67901334293919]}}
{"street": "Washington Street", "name": "Sea", "location": {"type": "Point", "coordinates": [-74.00792731228103, 40.74026744739758]}}
{"street": "2 Avenue", "name": "By The Glass Inc.", "location": {"type": "Point", "coordinates": [-73.9557985077679, 40.77229557680465]}}
{"street": "30Th Ave", "name": "Flo", "location": {"type": "Point", "coordinates": [-73.91327185810974, 40.76286893025696]}}
{"street": "5 Avenue", "name": "Moutarde", "location": {"type": "Point", "coordinates": [-73.98127622562203, 40.67515642914799]}}
{"street": "Madison Avenue", "name": "Shirt Restaurant Corp", "location": {"type": "Point", "coordinates": [-73.9557985077679, 40.78497601741782]}}
{"street": "First Avenue", "name": "Peter's On 83Rd", "location": {"type": "Point", "coordinates": [-73.9506363993197, 40.77515542085786]}}
{"street": "Park Avenue South", "name": "Haru", "location": {"type": "Point", "coordinates": [-73.98875866014174, 40.73704215325614]}}
{"street": "Bowery", "name": "East Pub Inc", "location": {"type": "Point", "coordinates": [-73.98887214913032, 40.73194394755518]}}
{"street": "Hudson Street", "name": "Alexandra", "location": {"type": "Point", "coordinates": [-74.00665516852479, 40.731376424471534]}}
{"street": "Court Street", "name": "Giannino's Pizza Corp.", "location": {"type": "Point", "coordinates": [-73.99520952428485, 40.68370972601971]}}
{"street": "7 Avenue", "name": "Trattoria Dell'Arte", "location": {"type": "Point", "coordinates": [-73.9800603554702, 40.7655465462409]}}
{"street": "Katonah Avenue", "name": "Tara Hill", "location": {"type": "Point", "coordinates": [-73.8672952223326, 40.89836827766048]}}
{"street": "Arthur Avenue", "name": "Umbertos Clam House", "location": {"type": "Point", "coordinates": [-73.88841355545816, 40.854510714405265]}}
{"street": "Spring Street", "name": "P. M. W. Inc.", "location": {"type": "Point", "coordinates": [-73.99714874515365, 40.72227169132924]}}
{"street": "First Avenue", "name": "Rectangles Restaurant", "location": {"type": "Point", "coordinates": [-73.95490817895887, 40.76929184122679]}}
{"street": "Eighth Avenue", "name": "Eisen & Son Inc.", "location": {"type": "Point", "coordinates": [-73.99993723296592, 40.74331042780034]}}
{"street": "Reade Street", "name": "Alba", "location": {"type": "Point", "coordinates": [-74.00441392976501, 40.71404688737392]}}
{"street": "Second Avenue", "name": "Eros Restaurant Corp", "location": {"type": "Point", "coordinates": [-73.96837102973745, 40.755082553163845]}}
{"street": "West Broadway", "name": "Cercle Rouge", "location": {"type": "Point", "coordinates": [-74.00592671768106, 40.71969423131094]}}
{"street": "Orchard Street", "name": "Robusto Nyc Inc", "location": {"type": "Point", "coordinates": [-73.99027851437125, 40.71802149233645]}}
{"street": "Emmons Avenue", "name": "Yiasou", "location": {"type": "Point", "coordinates": [-73.9484094876904, 40.58374718635545]}}
{"street": "Vanderbilt Avenue", "name": "The Ixtoc Llc", "location": {"type": "Point", "coordinates": [-73.9697090754616, 40.69264881872304]}}
{"street": "Second Avenue", "name": "Spigolo", "location": {"type": "Point", "coordinates": [-73.95398187726869, 40.774795692046155]}}
{"street": "30 Avenue", "name": "Paleros Inc", "location": {"type": "Point", "coordinates": [-73.91327185810974, 40.76286893025696]}}
{"street": "Madison Avenue", "name": "Pescalou", "location": {"type": "Point", "coordinates": [-73.95575668664335, 40.78509131603387]}}
{"street": "Middletown Road", "name": "Jimmy Ryan's", "location": {"type": "Point", "coordinates": [-73.83022185672134, 40.84394298428297]}}
{"street": "10 Avenue", "name": "Hallo Berlin", "location": {"type": "Point", "coordinates": [-73.99423819347864, 40.76125529958476]}}
{"street": "39 Avenue", "name": "Donato's Pizzeria Restaurant Corp", "location": {"type": "Point", "coordinates": [-73.9048471440804, 40.74519376448069]}}
{"street": "Little West 12 Street", "name": "Brass Monkey Llc", "location": {"type": "Point", "coordinates": [-74.00890536279485, 40.740733488466084]}}
{"street": "East 61 Street", "name": "Sofia 61St Street Corp.", "location": {"type": "Point", "coordinates": [-73.9699898093902, 40.764615366674434]}}
{"street": "Allen Street", "name": "La Pala Llc", "location": {"type": "Point", "coordinates": [-73.98866723627053, 40.722758550707276]}}
{"street": "Third Avenue", "name": "542 3Rd Avenue Food Corp", "location": {"type": "Point", "coordinates": [-73.97709445342167, 40.74713254642484]}}
{"street": "6 Avenue", "name": "757 Rest Llc", "location": {"type": "Point", "coordinates": [-73.99177138893987, 40.74430867525285]}}
{"street": "East 65 Street", "name": "Match 65", "location": {"type": "Point", "coordinates": [-73.96836203651719, 40.76721440733911]}}
{"street": "Duane Street", "name": "Nonna Restaurant Corp", "location": {"type": "Point", "coordinates": [-74.01028573929716, 40.71738745807827]}}
{"street": "Smith Street", "name": "Savioa", "location": {"type": "Point", "coordinates": [-73.99328788418762, 40.682467733208995]}}
{"street": "East 22Nd Street", "name": "Blt Main Street Llc", "location": {"type": "Point", "coordinates": [-73.98618659913791, 40.739245492227894]}}
{"street": "7 Avenue South", "name": "Mercadito Grove", "location": {"type": "Point", "coordinates": [-74.00312383752623, 40.73310694506296]}}
{"street": "Orchard Street", "name": "L'Epicerie Cafe Charbon", "location": {"type": "Point", "coordinates": [-73.98583147024613, 40.71612146793143]}}
{"street": "West 57 Street", "name": "Rue 57", "location": {"type": "Point", "coordinates": [-73.97591855754858, 40.76375703777691]}}
{"street": "Amsterdam Avenue", "name": "Ekd Tavern Inc", "location": {"type": "Point", "coordinates": [-73.97707646698109, 40.784859105554006]}}
{"street": "Westchester Avenue", "name": "Angelo's Donut", "location": {"type": "Point", "coordinates": [-73.83222767814084, 40.846993679421224]}}
{"street": "Ninth Avenue", "name": "Arriba Arriba Mexican Restaurant Inc", "location": {"type": "Point", "coordinates": [-73.98837195166914, 40.76424664464241]}}
{"street": "Amsterdam Avenue", "name": "Pq West 84Th, Inc.", "location": {"type": "Point", "coordinates": [-73.97607821952857, 40.78622607503854]}}
{"street": "Dyckman Street", "name": "Vida Cafe Inc.", "location": {"type": "Point", "coordinates": [-73.92820232742446, 40.86632328967144]}}
{"street": "Mulberry Street", "name": "Asc, Inc.", "location": {"type": "Point", "coordinates": [-73.99775131862694, 40.718371191754876]}}
{"street": "First Avenue", "name": "Petaluma", "location": {"type": "Point", "coordinates": [-73.95558267048085, 40.76837453275692]}}
{"street": "East Gunhill Road", "name": "V.I.P.'s Cafe", "location": {"type": "Point", "coordinates": [-73.87889010244716, 40.881301939100055]}}
{"street": "Grand Street", "name": "191 Grand Restaurant Corp.", "location": {"type": "Point", "coordinates": [-73.99708638213303, 40.71925356351659]}}
{"street": "Little West 12 Street", "name": "Itm Garden Inc.", "location": {"type": "Point", "coordinates": [-74.00649933900198, 40.73965469008554]}}
{"street": "Second Avenue", "name": "Cafe D' Alsace", "location": {"type": "Point", "coordinates": [-73.95086122982701, 40.779076464905586]}}
{"street": "Amsterdam Avenue", "name": "Global Village Grill Inc.", "location": {"type": "Point", "coordinates": [-73.97778828633732, 40.783824618575416]}}
{"street": "2 Avenue", "name": "Redemption Coctail Lounge", "location": {"type": "Point", "coordinates": [-73.96705801957472, 40.75688119722247]}}
{"street": "Second Avenue", "name": "Baraonda Restaurant, Inc.", "location": {"type": "Point", "coordinates": [-73.95700359928713, 40.770658810711325]}}
{"street": "Columbus Avenue", "name": "Yunhua On Columbus Inc.", "location": {"type": "Point", "coordinates": [-73.98032532337443, 40.77524725547934]}}
{"street": "Third Avenue", "name": "Effy's Cafe", "location": {"type": "Point", "coordinates": [-73.95132566322398, 40.78251378445883]}}
{"street": "Third Avenue", "name": "Rbg Village Llc", "location": {"type": "Point", "coordinates": [-73.98111442289269, 40.741619702385265]}}
{"street": "Seventh Avenue South", "name": "99 South Rest. Corp.", "location": {"type": "Point", "coordinates": [-74.01019960472792, 40.73358645135369]}}
{"street": "Second Avenue", "name": "Beach Cafe", "location": {"type": "Point", "coordinates": [-73.95941378232567, 40.767358298863826]}}
{"street": "Amsterdam Avenue", "name": "Mcaleer's Pub", "location": {"type": "Point", "coordinates": [-73.97767001952042, 40.784040722507314]}}
{"street": "Amsterdam Avenue", "name": "Sol Y Sombre Ltd", "location": {"type": "Point", "coordinates": [-73.97678868393172, 40.78525480724687]}}
{"street": "Amsterdam Avenue", "name": "Fred's", "location": {"type": "Point", "coordinates": [-73.97653454354933, 40.785666426745316]}}
{"street": "Grand Street", "name": "Onieal's", "location": {"type": "Point", "coordinates": [-73.99797671094205, 40.719550339786224]}}
{"street": "Amsterdam Avenue", "name": "American Speciality Foods", "location": {"type": "Point", "coordinates": [-73.98069179581428, 40.77995408066562]}}
{"street": "Second Avenue", "name": "Hailey Grace Corp", "location": {"type": "Point", "coordinates": [-73.95051049423557, 40.77954411236084]}}
{"street": "Hudson Street", "name": "Hudson Falafel Restaurant", "location": {"type": "Point", "coordinates": [-74.00625745972384, 40.7336388546941]}}
{"street": "Washington Street", "name": "Barbuto Llc", "location": {"type": "Point", "coordinates": [-74.00814937980631, 40.737789868568505]}}
{"street": "30 Avenue", "name": "Plaza Patisserie, Inc.", "location": {"type": "Point", "coordinates": [-73.92643545073543, 40.77152402451418]}}
{"street": "First Avenue", "name": "Three Star On First, Inc.", "location": {"type": "Point", "coordinates": [-73.95406220758484, 40.770394459538636]}}
{"street": "East 53 Street", "name": "John-Phil Tavern Corp", "location": {"type": "Point", "coordinates": [-73.96596513660023, 40.75620732696981]}}
{"street": "Columbus Avenue", "name": "71 Wine Bar Cafe Operating Corp.", "location": {"type": "Point", "coordinates": [-73.97930967138565, 40.77663928425033]}}
{"street": "9 Avenue", "name": "Meatpacking Restaurant Llc.", "location": {"type": "Point", "coordinates": [-74.00509934141411, 40.74113406848943]}}
{"street": "Flatbush Avenue", "name": "M & G Together 4 Ever, Llc.", "location": {"type": "Point", "coordinates": [-73.9734863798342, 40.67864163817154]}}
{"street": "East 10 Street", "name": "Life Cafe, Inc.", "location": {"type": "Point", "coordinates": [-73.9801341618807, 40.72696075330765]}}
{"street": "Lafayette Street", "name": "Lafayette Street Partners, Llc", "location": {"type": "Point", "coordinates": [-73.99338637348677, 40.72756954427389]}}
{"street": "Seventh Avenue", "name": "Il Bastardo", "location": {"type": "Point", "coordinates": [-73.99633994484873, 40.743121570174196]}}
{"street": "York Avenue", "name": "Braho Restaurant Corp.", "location": {"type": "Point", "coordinates": [-73.95121196541845, 40.770326061560525]}}
{"street": "2 Avenue", "name": "Ep Properties Ltd.", "location": {"type": "Point", "coordinates": [-73.95891915520951, 40.76801480394522]}}
{"street": "3 Avenue", "name": "Little Cupcake Corp.", "location": {"type": "Point", "coordinates": [-74.03254007213475, 40.61994946184463]}}
{"street": "34 Avenue", "name": "Locale", "location": {"type": "Point", "coordinates": [-73.9316632529567, 40.761699790013324]}}
{"street": "East 21 Street", "name": "Grill 21 Llc", "location": {"type": "Point", "coordinates": [-73.97981389037945, 40.73571369822285]}}
{"street": "Court Street", "name": "Leahlala, Llc", "location": {"type": "Point", "coordinates": [-73.99762102000156, 40.678889808291814]}}
{"street": "Avenue C", "name": "Pasta Bar, Llc", "location": {"type": "Point", "coordinates": [-73.97911148500697, 40.72664935898081]}}
{"street": "86 Street", "name": "Mezcals 86 Rest. Corp.", "location": {"type": "Point", "coordinates": [-74.00999400577616, 40.61166584007127]}}
{"street": "Greenwich Avenue", "name": "Maracas Greenwich Avenue Partners Llc", "location": {"type": "Point", "coordinates": [-74.00027725082606, 40.73511592929151]}}
{"street": "Spring Street", "name": "Iridium Restaurant, Corp.", "location": {"type": "Point", "coordinates": [-73.99497297536419, 40.72142092960718]}}
{"street": "Broadway", "name": "Sympatoch Cafe Inc.", "location": {"type": "Point", "coordinates": [-73.91327185810974, 40.76286893025696]}}
{"street": "Broadway", "name": "Tokyo Pop, Llc", "location": {"type": "Point", "coordinates": [-73.96797532804459, 40.800057647849144]}}
{"street": "Dekalb Avenue", "name": "Madiba Corporation", "location": {"type": "Point", "coordinates": [-73.97180350978572, 40.68959996117021]}}
{"street": "East 18Th Street", "name": "Tarallucci Evino", "location": {"type": "Point", "coordinates": [-73.99081218379587, 40.73809942727259]}}
{"street": "Dekalb Avenue", "name": "Sushid", "location": {"type": "Point", "coordinates": [-73.97116103411572, 40.68957741816422]}}
{"street": "West 4 Street", "name": "Pepe's Rest. Group Llc.", "location": {"type": "Point", "coordinates": [-74.00145114457254, 40.732062539491956]}}
{"street": "Eighth Avenue", "name": "Think Restaurants, Llc", "location": {"type": "Point", "coordinates": [-74.00177184990571, 40.740756353237146]}}
{"street": "Seventh Avenue", "name": "Cafe Metro", "location": {"type": "Point", "coordinates": [-73.981429245243, 40.76357599647256]}}
{"street": "6 Avenue", "name": "Porto Restaurant Inc.", "location": {"type": "Point", "coordinates": [-73.99578268963093, 40.738744125446374]}}
{"street": "23 Avenue", "name": "Christos Steak House", "location": {"type": "Point", "coordinates": [-73.90960650023976, 40.780092072491186]}}
{"street": "Broadway", "name": "Silver Moon Bakery Inc.", "location": {"type": "Point", "coordinates": [-73.96784581367896, 40.80049345434748]}}
{"street": "Second Avenue", "name": "Magenta Piccolo Corp.", "location": {"type": "Point", "coordinates": [-73.94998888745857, 40.78025457676398]}}
{"street": "Mulberry Street", "name": "Sofia's Cucina", "location": {"type": "Point", "coordinates": [-73.99760377660984, 40.718782064344516]}}
{"street": "Second Avenue", "name": "92 Adrianna Inc.", "location": {"type": "Point", "coordinates": [-73.9887406737011, 40.727104644832366]}}
{"street": "Woodhaven Boulevard", "name": "Barosa Inc.", "location": {"type": "Point", "coordinates": [-73.86148084756303, 40.72646491702238]}}
{"street": "3 Avenue", "name": "Phillipos Restaurant Inc.", "location": {"type": "Point", "coordinates": [-73.95021371796594, 40.78398676318557]}}
{"street": "Myrtle Avenue", "name": "La Stalla Restaurant", "location": {"type": "Point", "coordinates": [-73.96503140365195, 40.693584108831146]}}
{"street": "Third Avenue", "name": "Gael Pub", "location": {"type": "Point", "coordinates": [-73.9555287111591, 40.77668426830763]}}
{"street": "Grand Street", "name": "Grand Italian Food Center", "location": {"type": "Point", "coordinates": [-73.9974820838259, 40.719379468600664]}}
{"street": "West Broadway", "name": "West Broadway Management, Llc.", "location": {"type": "Point", "coordinates": [-74.00728469394528, 40.717967533014644]}}
{"street": "Broadway", "name": "Cafe 71, Inc.", "location": {"type": "Point", "coordinates": [-73.98214864322637, 40.77816814965598]}}
{"street": "Kissena Boulevard", "name": "Dominican Diner Restaurant Corp.", "location": {"type": "Point", "coordinates": [-73.82610630716033, 40.730323085042414]}}
{"street": "Madison Avenue", "name": "Neo Hospitality Llc.", "location": {"type": "Point", "coordinates": [-73.98055333665684, 40.75110170919814]}}
{"street": "Orchard Street", "name": "La Gaule, Inc.", "location": {"type": "Point", "coordinates": [-73.98821007370384, 40.722086427908835]}}
{"street": "10 Avenue", "name": "10Th Avenue Cookshop", "location": {"type": "Point", "coordinates": [-74.00563447806803, 40.745631833855036]}}
{"street": "Steinway Street", "name": "Noor El Hada Corp", "location": {"type": "Point", "coordinates": [-73.91327185810974, 40.76286893025696]}}
{"street": "Dyckman Street", "name": "Il Sole", "location": {"type": "Point", "coordinates": [-73.92776404955296, 40.86601160077111]}}
{"street": "Columbus Avenue", "name": "Madison On Columbus Corp", "location": {"type": "Point", "coordinates": [-73.97994335610099, 40.774536138232236]}}
{"street": "2 Avenue", "name": "Vermicelli", "location": {"type": "Point", "coordinates": [-73.95570857556493, 40.77243047510905]}}
{"street": "East 81 Street", "name": "Antonucci", "location": {"type": "Point", "coordinates": [-73.95695863318565, 40.77585689204068]}}
{"street": "Broadway", "name": "Havana Central Ny 3 Llc", "location": {"type": "Point", "coordinates": [-73.96518169979537, 40.806479953435826]}}
{"street": "Bowery", "name": "Agozar", "location": {"type": "Point", "coordinates": [-73.99222913886835, 40.725474592362154]}}
{"street": "Greenwich Street", "name": "Mouquinho Enterprises Inc.", "location": {"type": "Point", "coordinates": [-74.00879942583333, 40.727438504915376]}}
{"street": "Third Avenue", "name": "J.M.M.T. Cafe Inc", "location": {"type": "Point", "coordinates": [-73.98162703644937, 40.74090923798212]}}
{"street": "University Place", "name": "Ladl Llc.", "location": {"type": "Point", "coordinates": [-73.99321929740705, 40.733399899037465]}}
{"street": "Beekman Street", "name": "Manhattan Island Group, Llc.", "location": {"type": "Point", "coordinates": [-74.00257224651176, 40.70701379069777]}}
{"street": "Court Street", "name": "The Holy Grail Inc.", "location": {"type": "Point", "coordinates": [-73.99300578608562, 40.68843452194455]}}
{"street": "Kenmare Street", "name": "La Esquina", "location": {"type": "Point", "coordinates": [-73.99745258375648, 40.72143925610477]}}
{"street": "West 14 Street", "name": "Lucky 13 Llc", "location": {"type": "Point", "coordinates": [-74.00393431016055, 40.74038456650987]}}
{"street": "Second Avenue", "name": "Oh Mama Mia", "location": {"type": "Point", "coordinates": [-73.95627072148905, 40.77170647121955]}}
{"street": "East 75 Street", "name": "205 East 75Th Street Llc", "location": {"type": "Point", "coordinates": [-73.95901977267123, 40.77166016856759]}}
{"street": "Amsterdam Avenue", "name": "Emilio's Italian Eatery, Inc.", "location": {"type": "Point", "coordinates": [-73.97794851984756, 40.78360994647036]}}
{"street": "Smith Street", "name": "Chance", "location": {"type": "Point", "coordinates": [-73.99214882309406, 40.68417745656051]}}
{"street": "2 Avenue", "name": "Vero Inc.", "location": {"type": "Point", "coordinates": [-73.95597548401278, 40.77210673773402]}}
{"street": "Ninth Avenue", "name": "9Th Avenue Saloon, Inc.", "location": {"type": "Point", "coordinates": [-73.99152857199198, 40.75992989890182]}}
{"street": "West 63 Street", "name": "Ers Enterprises Inc.", "location": {"type": "Point", "coordinates": [-73.98183609046507, 40.77122083397401]}}
{"street": "Stanton Street", "name": "Loco 111, Inc.", "location": {"type": "Point", "coordinates": [-73.98736928964402, 40.721076261986575]}}
{"street": "Jackson Avenue", "name": "Manetta's Fine Food Corp.", "location": {"type": "Point", "coordinates": [-73.95222234881106, 40.74271967174663]}}
{"street": "Hudson Street", "name": "643 Hudson Llc", "location": {"type": "Point", "coordinates": [-74.00544108378523, 40.7390836142626]}}
{"street": "Greenwich Street", "name": "Il Mattone Corp.", "location": {"type": "Point", "coordinates": [-74.00990172105054, 40.72134898384485]}}
{"street": "East 10 Street", "name": "Horus Corp", "location": {"type": "Point", "coordinates": [-73.98206770424372, 40.727788129574606]}}
{"street": "3 Avenue", "name": "Mo & Yeo Corp", "location": {"type": "Point", "coordinates": [-74.03313939901372, 40.61847179945688]}}
{"street": "Lexington Avenue", "name": "Vezzo, Inc.", "location": {"type": "Point", "coordinates": [-73.98116838221443, 40.744398607455764]}}
{"street": "Columbus Avenue", "name": "Wine And Roses Bar And Cafes, Llc.", "location": {"type": "Point", "coordinates": [-73.97816487970836, 40.778328526390425]}}
{"street": "East 83 Street", "name": "Martell's Nyc, Llc.", "location": {"type": "Point", "coordinates": [-73.95535323738994, 40.77681185543149]}}
{"street": "First Avenue", "name": "New Fusha, Inc.", "location": {"type": "Point", "coordinates": [-73.96236355858179, 40.75909352941454]}}
{"street": "Second Avenue", "name": "Zucchero E Pomodon", "location": {"type": "Point", "coordinates": [-73.9570665518292, 40.77056887850841]}}
{"street": "Hylan Boulevard", "name": "Trattoria Romana, Inc", "location": {"type": "Point", "coordinates": [-74.08720177905381, 40.592376881634245]}}
{"street": "Manhattan Avenue", "name": "Enid's", "location": {"type": "Point", "coordinates": [-73.94986622591837, 40.72223507836052]}}
{"street": "West 12 Street", "name": "Smorgas Chef", "location": {"type": "Point", "coordinates": [-74.00400216853836, 40.73755476681282]}}
{"street": "1 Avenue", "name": "Mehraj & Sons Inc", "location": {"type": "Point", "coordinates": [-73.96021417893172, 40.76201632600976]}}
{"street": "2 Avenue", "name": "Starbucks Coffee", "location": {"type": "Point", "coordinates": [-73.9871129008281, 40.7293259702447]}}
{"street": "Second Avenue", "name": "Lenny's 54Th Street Llc", "location": {"type": "Point", "coordinates": [-73.96661735178037, 40.7574747497618]}}
{"street": "Third Avenue", "name": "Coppolas", "location": {"type": "Point", "coordinates": [-73.98115938899412, 40.7415567498432]}}
{"street": "West 238 Street", "name": "Burke's Beal Bocht Corp.", "location": {"type": "Point", "coordinates": [-73.9047300962357, 40.88725990228991]}}
{"street": "King Street", "name": "New Mekong Restaurant Corp.", "location": {"type": "Point", "coordinates": [-74.01019960472792, 40.73358645135369]}}
{"street": "3 Avenue", "name": "Starbucks Coffee Company", "location": {"type": "Point", "coordinates": [-74.027532400932, 40.63200588256758]}}
{"street": "Second Avenue", "name": "Lenny's 77Th Street Llc", "location": {"type": "Point", "coordinates": [-73.95651834249509, 40.7713730413305]}}
{"street": "30 Avenue", "name": "Mangia Restaurant Corporation", "location": {"type": "Point", "coordinates": [-73.91327185810974, 40.76286893025696]}}
{"street": "Second Avenue", "name": "Lenny's 77Th Street Llc", "location": {"type": "Point", "coordinates": [-73.95581649420848, 40.77227759036407]}}
{"street": "Mulberry Street", "name": "Paesano Rest. Corp.", "location": {"type": "Point", "coordinates": [-73.99769642260875, 40.718470871366826]}}
{"street": "Second Avenue", "name": "301 East 47Th Street Restaurant Corp", "location": {"type": "Point", "coordinates": [-73.97297648087982, 40.75245652744684]}}
{"street": "5 Avenue", "name": "Masaniello Restaurant Corp.", "location": {"type": "Point", "coordinates": [-73.97750730412059, 40.680847073928206]}}
{"street": "2 Avenue", "name": "78 Second Avenue Sandwich Shop,Inc.", "location": {"type": "Point", "coordinates": [-73.98921731437667, 40.72646612619155]}}
{"street": "East 161 Street", "name": "Npk Donut Inc", "location": {"type": "Point", "coordinates": [-73.92430797088983, 40.82713049092343]}}
{"street": "Macdougal Street", "name": "Focacceria, Ltd", "location": {"type": "Point", "coordinates": [-74.0013075202743, 40.72907516473966]}}
{"street": "South Elliott Place", "name": "The Smoke Joint", "location": {"type": "Point", "coordinates": [-73.97551648178653, 40.68691855348542]}}
{"street": "2 Avenue", "name": "Jrc Group Inc", "location": {"type": "Point", "coordinates": [-73.95540280607497, 40.772853156462816]}}
{"street": "Peck Slip", "name": "Peck Slip Restaurant Corp.", "location": {"type": "Point", "coordinates": [-74.14119841225698, 40.56338140045976]}}
{"street": "Mott Street", "name": "Caffe Vetro, Inc.", "location": {"type": "Point", "coordinates": [-73.99559350756437, 40.7212680448622]}}
{"street": "Amsterdam Avenue", "name": "Dls Chicken Corp", "location": {"type": "Point", "coordinates": [-73.97936074493555, 40.78172946489201]}}
{"street": "Central Park South", "name": "The Ritz-Carlton New York, Central Park", "location": {"type": "Point", "coordinates": [-73.97457792314559, 40.76496046701782]}}
{"street": "Amsterdam Avenue", "name": "Bodrum", "location": {"type": "Point", "coordinates": [-73.97395827157557, 40.78919418435815]}}
{"street": "West 26 Street", "name": "Hill Country Ny, Llc", "location": {"type": "Point", "coordinates": [-73.99034146691326, 40.74435364135434]}}
{"street": "Dekalb Avenue", "name": "243 Dekalb Rest. Corp", "location": {"type": "Point", "coordinates": [-73.96946148666142, 40.68951082270725]}}
{"street": "Broadway", "name": "Mc 104", "location": {"type": "Point", "coordinates": [-73.96800230770549, 40.799985702086815]}}
{"street": "3 Avenue", "name": "Village Pourhouse", "location": {"type": "Point", "coordinates": [-73.98874966692142, 40.73114260074391]}}
{"street": "Hudson Street", "name": "Bayard's Alehouse", "location": {"type": "Point", "coordinates": [-74.00619651428985, 40.734263248185584]}}
{"street": "Ninth Avenue", "name": "Nizza", "location": {"type": "Point", "coordinates": [-73.9914894021525, 40.75992887717089]}}
{"street": "East 18 Street", "name": "Manna Kitchen Inc", "location": {"type": "Point", "coordinates": [-73.99001704503205, 40.7377068789146]}}
{"street": "Smith Street", "name": "Bidochons Corp", "location": {"type": "Point", "coordinates": [-73.99298558604383, 40.6829010420312]}}
{"street": "Avenue A", "name": "H & R Cafe Inc", "location": {"type": "Point", "coordinates": [-73.98299515770208, 40.72266469672157]}}
{"street": "Lafayette Street", "name": "Delicatessen", "location": {"type": "Point", "coordinates": [-73.99655890532276, 40.72349868289508]}}
{"street": "East 54 Street", "name": "Papillon", "location": {"type": "Point", "coordinates": [-73.9742256161482, 40.76055043110199]}}
{"street": "9 Avenue", "name": "Galaxy Diner", "location": {"type": "Point", "coordinates": [-73.9906652228438, 40.761143983641375]}}
{"street": "West 35 Street", "name": "S. Wallace Inc", "location": {"type": "Point", "coordinates": [-73.98413829733063, 40.74910326346623]}}
{"street": "East 30 Street", "name": "The Crooked Knife", "location": {"type": "Point", "coordinates": [-73.97823298586354, 40.745242969987146]}}
{"street": "10 Avenue", "name": "599 Tenth Avenue Corp.", "location": {"type": "Point", "coordinates": [-73.99476613129741, 40.760604390423794]}}
{"street": "2 Avenue", "name": "Lasagna Restaurant Inc.", "location": {"type": "Point", "coordinates": [-73.96857787380424, 40.75478577689421]}}
{"street": "Mulberry Street", "name": "Akram Restaurant Management Inc", "location": {"type": "Point", "coordinates": [-73.99792786213914, 40.71819295009514]}}
{"street": "White Street", "name": "Petrarca", "location": {"type": "Point", "coordinates": [-74.0046856532806, 40.71876792962075]}}
{"street": "Columbus Avenue", "name": "Cilantro West Llc", "location": {"type": "Point", "coordinates": [-73.97347018564363, 40.78471521402929]}}
{"street": "Beekman Street", "name": "Rose Restaurant Group Inc", "location": {"type": "Point", "coordinates": [-74.00307186237649, 40.70935929189784]}}
{"street": "2 Avenue", "name": "1460 Second Avenue Restaurant Group, Llc", "location": {"type": "Point", "coordinates": [-73.95628414166367, 40.771630078502994]}}
{"street": "7 Avenue South", "name": "Panca", "location": {"type": "Point", "coordinates": [-74.00334363183016, 40.73273921228516]}}
{"street": "West 57 Street", "name": "Shelly's New York", "location": {"type": "Point", "coordinates": [-73.97636600257795, 40.76397684803362]}}
{"street": "1 Avenue", "name": "Fusion Sushi Inc.", "location": {"type": "Point", "coordinates": [-73.97980050093591, 40.734756218145506]}}
{"street": "Broadway", "name": "Mundo Tapas", "location": {"type": "Point", "coordinates": [-73.9316632529567, 40.761699790013324]}}
{"street": "Hudson Street", "name": "Out Of The Kitchen Inc.", "location": {"type": "Point", "coordinates": [-74.00682603971035, 40.730333210917536]}}
{"street": "Ditmars Boulevard", "name": "Bistro 33", "location": {"type": "Point", "coordinates": [-73.90960650023976, 40.780092072491186]}}
{"street": "West 46 Street", "name": "Via Brazil", "location": {"type": "Point", "coordinates": [-73.98062878899685, 40.75671032603691]}}
{"street": "3 Avenue", "name": "Madova Llc.", "location": {"type": "Point", "coordinates": [-73.95053747389647, 40.783555088611536]}}
{"street": "City Island Avenue", "name": "Sammy's Orignal Shrimp Box", "location": {"type": "Point", "coordinates": [-73.78360735906038, 40.839607689202985]}}
{"street": "2 Avenue", "name": "Johnny Foxes", "location": {"type": "Point", "coordinates": [-73.95429663997896, 40.77436401747207]}}
{"street": "East 14 Street", "name": "Blind Pig", "location": {"type": "Point", "coordinates": [-73.9858268703262, 40.73271641429517]}}
{"street": "7 Avenue", "name": "Pq Chelsea Inc", "location": {"type": "Point", "coordinates": [-73.99807563636529, 40.740747360016826]}}
{"street": "1 Avenue", "name": "Le Pain Quotidien", "location": {"type": "Point", "coordinates": [-73.9577206099831, 40.76538472909788]}}
{"street": "Fort Washington Avenue", "name": "Shangrila Deli", "location": {"type": "Point", "coordinates": [-73.94194950399138, 40.842900566723955]}}
{"street": "East 12 Street", "name": "Salsa Salon Inc", "location": {"type": "Point", "coordinates": [-73.99157777653264, 40.7334487909014]}}
{"street": "Mulberry Street", "name": "Giovanna's", "location": {"type": "Point", "coordinates": [-73.99790157181232, 40.71810422415635]}}
{"street": "7 Avenue South", "name": "7Th Avenue Restaurant Group Llc", "location": {"type": "Point", "coordinates": [-74.01019960472792, 40.73358645135369]}}
{"street": "Rockaway Beach Boulevard", "name": "108 Bagel Corp", "location": {"type": "Point", "coordinates": [-73.85077700055808, 40.57657830564432]}}
{"street": "Woodside Avenue", "name": "Riz Bagels Inc.", "location": {"type": "Point", "coordinates": [-73.9048471440804, 40.74519376448069]}}
{"street": "7 Avenue South", "name": "Sushi Samba # 7", "location": {"type": "Point", "coordinates": [-74.00339861469703, 40.73251434095527]}}
{"street": "Lafayette Avenue", "name": "T Burger, Llc", "location": {"type": "Point", "coordinates": [-73.97570639238756, 40.6871106661029]}}
{"street": "East 84 Street", "name": "Nica Trattoria", "location": {"type": "Point", "coordinates": [-73.9514173051294, 40.77598330427891]}}
{"street": "9 Avenue", "name": "772 Ninth Restaurant Corp.", "location": {"type": "Point", "coordinates": [-73.98820108048352, 40.76448946159036]}}
{"street": "Arthur Avenue", "name": "Palombo Inc.", "location": {"type": "Point", "coordinates": [-73.88752751710149, 40.85555954941789]}}
{"street": "10 Avenue", "name": "Taboon", "location": {"type": "Point", "coordinates": [-73.99080376845488, 40.766087849913724]}}
{"street": "Hudson Street", "name": "611 Hudson Street Corp.", "location": {"type": "Point", "coordinates": [-74.00572548449368, 40.737567107806456]}}
{"street": "2 Avenue", "name": "Molly Pitchers's Ale House", "location": {"type": "Point", "coordinates": [-73.95213826710864, 40.77730480050786]}}
{"street": "6 Avenue", "name": "Markt On Ladies Mile Llc", "location": {"type": "Point", "coordinates": [-73.99365097198108, 40.74172762102876]}}
{"street": "9 Avenue", "name": "Scenic Route 66 Cafe Inc", "location": {"type": "Point", "coordinates": [-73.98637545676405, 40.767016556492706]}}
{"street": "Bowery", "name": "Bowery F & B, Llc", "location": {"type": "Point", "coordinates": [-73.99179621853632, 40.72601805149763]}}
{"street": "Broadway", "name": "3801 Broadway Restaurant Corp.", "location": {"type": "Point", "coordinates": [-73.91327185810974, 40.76286893025696]}}
{"street": "7 Avenue", "name": "Safran Inc.", "location": {"type": "Point", "coordinates": [-73.99897989710877, 40.73956866245468]}}
{"street": "14 Street", "name": "Brothers Pizza", "location": {"type": "Point", "coordinates": [-73.92643545073543, 40.77152402451418]}}
{"street": "Broadway", "name": "Time Cafe", "location": {"type": "Point", "coordinates": [-73.91327185810974, 40.76286893025696]}}
{"street": "2 Avenue", "name": "Vynl On Second Llc", "location": {"type": "Point", "coordinates": [-73.95564562302286, 40.772511414091696]}}
{"street": "2 Avenue", "name": "Vynl On Second, Llc", "location": {"type": "Point", "coordinates": [-73.95564562302286, 40.772511414091696]}}
{"street": "York Avenue", "name": "Gracies's Cafe", "location": {"type": "Point", "coordinates": [-73.94953922644396, 40.772601346294664]}}
{"street": "3 Avenue", "name": "Arctica", "location": {"type": "Point", "coordinates": [-73.98103348391004, 40.74173661424908]}}
{"street": "West 11 Street", "name": "Wallse Restaurant", "location": {"type": "Point", "coordinates": [-74.01019960472792, 40.73358645135369]}}
{"street": "Spring Street", "name": "Famous Ben's Pizza Of Soho", "location": {"type": "Point", "coordinates": [-74.00250030074943, 40.724811373657644]}}
{"street": "Buhre Avenue", "name": "Georges Restaurant", "location": {"type": "Point", "coordinates": [-73.83150958052084, 40.847228476366354]}}
{"street": "Broadway", "name": "Ellen's Starbust Diner", "location": {"type": "Point", "coordinates": [-73.98361263022184, 40.762021327297084]}}
{"street": "Rivington Street", "name": "Hotel On Rivington", "location": {"type": "Point", "coordinates": [-73.9880212160777, 40.71997302113999]}}
{"street": "First Avenue", "name": "Bruno The King Of Ravioli", "location": {"type": "Point", "coordinates": [-73.97911148500697, 40.72664935898081]}}
{"street": "2 Avenue", "name": "Taco Taco Inc", "location": {"type": "Point", "coordinates": [-73.95003385356006, 40.78020061744223]}}
{"street": "2 Avenue", "name": "88 2Nd Ave Food Corp.", "location": {"type": "Point", "coordinates": [-73.9888755720055, 40.72692478042649]}}
{"street": "Park Avenue South", "name": "Prime Steakhouse", "location": {"type": "Point", "coordinates": [-73.98458580592575, 40.74251902441455]}}
{"street": "Bedford Avenue", "name": "Charleston", "location": {"type": "Point", "coordinates": [-73.95752074092232, 40.718057557997824]}}
{"street": "Lexington Avenue", "name": "Corrado Bakery", "location": {"type": "Point", "coordinates": [-73.95356818913518, 40.782224092008164]}}
{"street": "East 76 Street", "name": "Cafe Boulud", "location": {"type": "Point", "coordinates": [-73.96386542637072, 40.77449891577646]}}
{"street": "Columbus Avenue", "name": "Arte Around The Corner", "location": {"type": "Point", "coordinates": [-73.97994335610099, 40.774536138232236]}}
{"street": "Downing Street", "name": "10 Downing", "location": {"type": "Point", "coordinates": [-74.00295895498436, 40.72955979397233]}}
{"street": "Peck Slip", "name": "Goat Fifty Llc", "location": {"type": "Point", "coordinates": [-74.14119603573532, 40.563384608764]}}
{"street": "Elizabeth Street", "name": "Lovely Day", "location": {"type": "Point", "coordinates": [-73.99447834824804, 40.721834617740626]}}
{"street": "Steinway Street", "name": "Little Morocco Restaurant Corp.", "location": {"type": "Point", "coordinates": [-73.91327185810974, 40.76286893025696]}}
{"street": "Greenwich Street", "name": "Ivy's Bistro Llc.", "location": {"type": "Point", "coordinates": [-74.01010856511732, 40.7202248313082]}}
{"street": "East 60 Street", "name": "Bistro 60", "location": {"type": "Point", "coordinates": [-73.97029557888021, 40.76394087515246]}}
{"street": "7 Avenue", "name": "Provencio Ltd", "location": {"type": "Point", "coordinates": [-73.98186835126758, 40.66647827749764]}}
{"street": "Broadway", "name": "Cosi, Inc", "location": {"type": "Point", "coordinates": [-73.98052813112305, 40.782698725331585]}}
{"street": "Greenwich Street", "name": "Dean's", "location": {"type": "Point", "coordinates": [-74.0103963481667, 40.71859705843519]}}
{"street": "3 Avenue", "name": "Dharadhara Llc", "location": {"type": "Point", "coordinates": [-73.95642150153705, 40.775523142077816]}}
{"street": "Amsterdam Avenue", "name": "Artopolis Cafe Ltd", "location": {"type": "Point", "coordinates": [-73.96224091603351, 40.80524788244413]}}
{"street": "Amsterdam Avenue", "name": "J Of K Corp", "location": {"type": "Point", "coordinates": [-73.97763316862074, 40.78403681445016]}}
{"street": "East Tremont Avenue", "name": "Tosca Coal Burning Oven Inc", "location": {"type": "Point", "coordinates": [-73.81759035218695, 40.8195796357204]}}
{"street": "2 Avenue", "name": "Hi-Life Restaurant & Lounge", "location": {"type": "Point", "coordinates": [-73.9555184463585, 40.77274503694507]}}
{"street": "South Portland Avenue", "name": "No Grande,Inc.", "location": {"type": "Point", "coordinates": [-73.97465270747686, 40.68707240735804]}}
{"street": "86 Street", "name": "Mona Lisa Cafe, Inc", "location": {"type": "Point", "coordinates": [-74.00995707678072, 40.61164359368847]}}
{"street": "Columbus Avenue", "name": "Magnolia Columbus Avenue Llc.", "location": {"type": "Point", "coordinates": [-73.98022351643253, 40.77551137948189]}}
{"street": "Greenwich Street", "name": "Tribeca Food Ny Llc", "location": {"type": "Point", "coordinates": [-74.0105941990131, 40.71767974996527]}}
{"street": "Avenue B", "name": "El Sayed 1 Corp.", "location": {"type": "Point", "coordinates": [-73.97911148500697, 40.72664935898081]}}
{"street": "Amsterdam Avenue", "name": "The Mermaid Inn", "location": {"type": "Point", "coordinates": [-73.97428856869027, 40.78869021739882]}}
{"street": "2 Avenue", "name": "Land", "location": {"type": "Point", "coordinates": [-73.95392791794694, 40.774867637808484]}}
{"street": "West 47 Street", "name": "Pam Real Thai Ii Inc", "location": {"type": "Point", "coordinates": [-73.99070119572502, 40.76177350906187]}}
{"street": "Hudson Street", "name": "Le Pain Quotidien", "location": {"type": "Point", "coordinates": [-74.00606161598546, 40.73509062445254]}}
{"street": "Mulberry Street", "name": "La Mela Ristorante", "location": {"type": "Point", "coordinates": [-74.00888900022716, 40.721242188776046]}}
{"street": "Broadway", "name": "Sushi A Gogo Restaurant", "location": {"type": "Point", "coordinates": [-73.98199663393459, 40.77135954602272]}}
{"street": "Northern Boulevard", "name": "40-01 Northern Boulevard Corp", "location": {"type": "Point", "coordinates": [-73.93866902925225, 40.74570244980828]}}
{"street": "Amsterdam Avenue", "name": "Thai Market Inc.", "location": {"type": "Point", "coordinates": [-73.96513347043202, 40.80124475292786]}}
{"street": "Columbus Avenue", "name": "Amber Japanese Rest. Inc.", "location": {"type": "Point", "coordinates": [-73.97994335610099, 40.774536138232236]}}
{"street": "Madison Avenue", "name": "Vico", "location": {"type": "Point", "coordinates": [-73.95584347386932, 40.78492205809607]}}
{"street": "Court Street", "name": "Tsm Restaurant Llc", "location": {"type": "Point", "coordinates": [-73.99906309530279, 40.67587155760323]}}
{"street": "West 135 Street", "name": "701 W. 135Th Cafe Inc.", "location": {"type": "Point", "coordinates": [-73.95632151277681, 40.82065502848618]}}
{"street": "Second Avenue", "name": "Bar Italia", "location": {"type": "Point", "coordinates": [-73.9561058757611, 40.771928378930276]}}
{"street": "Dekalb Avenue", "name": "166 Park Inc.", "location": {"type": "Point", "coordinates": [-73.97315934499737, 40.689603596309055]}}
{"street": "Second Avenue", "name": "Tenzan Ii New York Corp.", "location": {"type": "Point", "coordinates": [-73.95039358237176, 40.77970599032608]}}
{"street": "2 Avenue", "name": "1629 2Nd Cafe Inc.", "location": {"type": "Point", "coordinates": [-73.95238108405653, 40.776972051357006]}}
{"street": "Avenue B", "name": "Totof Inc.", "location": {"type": "Point", "coordinates": [-73.97911148500697, 40.72664935898081]}}
{"street": "9 Avenue", "name": "Larry Kevin K Corp", "location": {"type": "Point", "coordinates": [-73.98861476861703, 40.763922888711875]}}
{"street": "Henry Street", "name": "Siggy's Good Food L.L.C.", "location": {"type": "Point", "coordinates": [-73.99250103935346, 40.69859482374489]}}
{"street": "Lincoln Place", "name": "163 5Th Ave Rest Corp", "location": {"type": "Point", "coordinates": [-73.97954364673245, 40.677624379902866]}}
{"street": "East 29 Street", "name": "Resto", "location": {"type": "Point", "coordinates": [-73.98286810084977, 40.743616197290294]}}
{"street": "Prince Street", "name": "Sengupta Food Services Llc", "location": {"type": "Point", "coordinates": [-73.99671766010101, 40.723777153323965]}}
{"street": "8 Avenue", "name": "Italian Wine Company Llc", "location": {"type": "Point", "coordinates": [-74.00423599226599, 40.7380673803695]}}
{"street": "6 Avenue", "name": "Gusto Grilled Organics, Inc", "location": {"type": "Point", "coordinates": [-74.00460000028977, 40.74471526669623]}}
{"street": "2 Avenue", "name": "Shannon Cafe Llc", "location": {"type": "Point", "coordinates": [-73.96829908397513, 40.755181478587076]}}
{"street": "Broadway", "name": "Romanos Famous Pizza Corp.", "location": {"type": "Point", "coordinates": [-73.9316632529567, 40.761699790013324]}}
{"street": "7 Avenue", "name": "Burkinabe Entertainment Llc", "location": {"type": "Point", "coordinates": [-73.94276530357587, 40.81843517604261]}}
{"street": "Borinquen Place", "name": "Wow Brigde Cafe, Llc", "location": {"type": "Point", "coordinates": [-73.95351154404366, 40.710697013073116]}}
{"street": "Broadway", "name": "Ungs Food Services Inc.", "location": {"type": "Point", "coordinates": [-73.9316632529567, 40.761699790013324]}}
{"street": "10 Avenue", "name": "The Emera Group Incorporated", "location": {"type": "Point", "coordinates": [-73.9945607529402, 40.76083084269985]}}
{"street": "Bleecker Street", "name": "Think Bleecker Llc", "location": {"type": "Point", "coordinates": [-73.99249983978359, 40.72530600077374]}}
{"street": "East 12 Street", "name": "Resto-Leon Inc.", "location": {"type": "Point", "coordinates": [-73.98472657479395, 40.73055705599047]}}
{"street": "1 Avenue", "name": "Vamos", "location": {"type": "Point", "coordinates": [-73.9797707496729, 40.735210902654]}}
{"street": "East Tremont Avenue", "name": "Mem Rest Corp.", "location": {"type": "Point", "coordinates": [-73.8175671914152, 40.81967424381293]}}
{"street": "9 Avenue", "name": "Little Siam Corp", "location": {"type": "Point", "coordinates": [-73.99086307369026, 40.760865193812265]}}
{"street": "Amsterdam Avenue", "name": "Iano Corp", "location": {"type": "Point", "coordinates": [-73.97094309074129, 40.79326776652795]}}
{"street": "Broadway", "name": "Pq Upper West Inc", "location": {"type": "Point", "coordinates": [-73.97407273140323, 40.791693952976686]}}
{"street": "2 Avenue", "name": "Gramercy Thai. Inc", "location": {"type": "Point", "coordinates": [-73.98302997881507, 40.734973712588726]}}
{"street": "West 51 Street", "name": "Il Melograno Llc", "location": {"type": "Point", "coordinates": [-73.9920584053583, 40.76565346040128]}}
{"street": "8 Avenue", "name": "C & O Coffee Shop Inc.", "location": {"type": "Point", "coordinates": [-74.00455564743774, 40.737734739942766]}}
{"street": "9 Avenue", "name": "La Scala Restaurant, Llc", "location": {"type": "Point", "coordinates": [-73.99144337685128, 40.75999274901747]}}
{"street": "31 Street", "name": "Wave Thai", "location": {"type": "Point", "coordinates": [-73.90960650023976, 40.780092072491186]}}
{"street": "3 Avenue", "name": "The Kinsale Tavern", "location": {"type": "Point", "coordinates": [-73.9504475416935, 40.78367200047529]}}
{"street": "Amsterdam Avenue", "name": "Blockheads Burritos", "location": {"type": "Point", "coordinates": [-73.96540326704081, 40.8008850241161]}}
{"street": "Spring Street", "name": "Mosso Corp", "location": {"type": "Point", "coordinates": [-74.00799522738427, 40.72584634094918]}}
{"street": "5 Avenue", "name": "A.O.C. Bistro", "location": {"type": "Point", "coordinates": [-73.98174694372021, 40.67457828006279]}}
{"street": "East 4 Street", "name": "Belcourt", "location": {"type": "Point", "coordinates": [-73.9900901486792, 40.72642930441347]}}
{"street": "Montague Street", "name": "Jl Megre Co., Inc.", "location": {"type": "Point", "coordinates": [-73.99457695476072, 40.694840078771755]}}
{"street": "2 Avenue", "name": "Shoolbred's", "location": {"type": "Point", "coordinates": [-73.98574593134356, 40.7312505193874]}}
{"street": "7 Avenue", "name": "Park Slope Mp Company, Inc", "location": {"type": "Point", "coordinates": [-73.97722784942239, 40.67215253186191]}}
{"street": "Broadway", "name": "Katouna Inc", "location": {"type": "Point", "coordinates": [-73.97373553483112, 40.79222973254499]}}
{"street": "5 Avenue", "name": "Cucina Romana Inc", "location": {"type": "Point", "coordinates": [-73.94615494284069, 40.80102232217333]}}
{"street": "2 Avenue", "name": "Pick A Bagel On Second Inc", "location": {"type": "Point", "coordinates": [-73.95621577291307, 40.77178044045646]}}
{"street": "1 Avenue", "name": "C & V 77 Enterprises Llc", "location": {"type": "Point", "coordinates": [-73.95609016263086, 40.77293949176419]}}
{"street": "Broadway", "name": "Bar Stuzzichini", "location": {"type": "Point", "coordinates": [-73.98954107030721, 40.740027902393365]}}
{"street": "East 11 Street", "name": "Settebello Llc", "location": {"type": "Point", "coordinates": [-73.9788525278906, 40.72723368581388]}}
{"street": "Laguardia Place", "name": "Fgny 496 Laguardia, Llc", "location": {"type": "Point", "coordinates": [-73.99955052449332, 40.72736544822084]}}
{"street": "Thompson Street", "name": "Half Pint On Thompson, Llc", "location": {"type": "Point", "coordinates": [-73.99865476402994, 40.72956666855572]}}
{"street": "Arthur Avenue", "name": "Prishtina Rest. Corp", "location": {"type": "Point", "coordinates": [-73.88905133306511, 40.85386741785641]}}
{"street": "Columbus Avenue", "name": "Water Moon At Nyc Inc.", "location": {"type": "Point", "coordinates": [-73.97385689411624, 40.78418461403203]}}
{"street": "Broadway", "name": "2888 Broadway Llc", "location": {"type": "Point", "coordinates": [-73.96543086625722, 40.80567746451814]}}
{"street": "Broadway", "name": "S.A.V. Associates Inc.", "location": {"type": "Point", "coordinates": [-73.97010672125401, 40.79712585803367]}}
{"street": "Vernon Boulevard", "name": "Tournesol Restaurant", "location": {"type": "Point", "coordinates": [-73.93866902925225, 40.74570244980828]}}
{"street": "Ditmars Boulevard", "name": "G.V.S Bakery Inc", "location": {"type": "Point", "coordinates": [-73.90960650023976, 40.780092072491186]}}
{"street": "Barrow Street", "name": "74 Seventh Llc", "location": {"type": "Point", "coordinates": [-74.00372174978025, 40.73220027136173]}}
{"street": "Pearl Street", "name": "Pearlstone Burger Corporation", "location": {"type": "Point", "coordinates": [-74.01045410227373, 40.703871489045376]}}
{"street": "Orchard Street", "name": "Little Giant Food & Drink", "location": {"type": "Point", "coordinates": [-73.9903561418569, 40.71794172706875]}}
{"street": "41 Street", "name": "Mtlc Corporation", "location": {"type": "Point", "coordinates": [-73.92054134530679, 40.74489336663561]}}
{"street": "Dyckman Street", "name": "Restaurant 101 Inc.", "location": {"type": "Point", "coordinates": [-73.92492478250199, 40.861868050922965]}}
{"street": "24 Avenue", "name": "Othello Deli", "location": {"type": "Point", "coordinates": [-73.92643545073543, 40.77152402451418]}}
{"street": "Bowery", "name": "316 Bowery Llc", "location": {"type": "Point", "coordinates": [-73.99231098215745, 40.7251441228085]}}
{"street": "1 Avenue", "name": "Samalitas Of California Ii Llc", "location": {"type": "Point", "coordinates": [-73.94872060858418, 40.77780784574763]}}
{"street": "Broadway", "name": "Belstar Ice Cream Co, Llc", "location": {"type": "Point", "coordinates": [-73.9316632529567, 40.761699790013324]}}
{"street": "Allen Street", "name": "Raynick Corp", "location": {"type": "Point", "coordinates": [-73.98889809597169, 40.72269025539324]}}
{"street": "First Avenue", "name": "14Th Street Bella Pizza Corp", "location": {"type": "Point", "coordinates": [-73.98260952353425, 40.73123592147614]}}
{"street": "East 18 Street", "name": "Geisha Nyc Llc", "location": {"type": "Point", "coordinates": [-73.98786156869676, 40.736866410066625]}}
{"street": "Third Avenue", "name": "Tiramisu Restaurant, Llc", "location": {"type": "Point", "coordinates": [-73.95668883657686, 40.77508347509553]}}
{"street": "Broadway", "name": "149 Broadway Restaurant Llc", "location": {"type": "Point", "coordinates": [-73.96334593130084, 40.71032129608832]}}
{"street": "Bedford Avenue", "name": "Dumont Burger, Llc", "location": {"type": "Point", "coordinates": [-73.96187537357426, 40.71366773434968]}}
{"street": "12 Avenue", "name": "Dinosaur Restaurants Llc", "location": {"type": "Point", "coordinates": [-73.9588646445019, 40.82001881984105]}}
{"street": "Columbus Avenue", "name": "Shake Shack 366 Columbus Llc", "location": {"type": "Point", "coordinates": [-73.97623556586913, 40.78096513726777]}}
{"street": "Second Avenue", "name": "Meath Trails Inc.", "location": {"type": "Point", "coordinates": [-73.98963999573044, 40.72589955331307]}}
{"street": "8 Avenue", "name": "Jz Food & Wine Llc", "location": {"type": "Point", "coordinates": [-74.00388621719124, 40.7384185780008]}}
{"street": "W 95Th St", "name": "201 Rest. 95Th Street Corp.", "location": {"type": "Point", "coordinates": [-73.97088392680055, 40.793425325175214]}}
{"street": "3 Avenue", "name": "Fiasco Group Llc", "location": {"type": "Point", "coordinates": [-73.98253162641004, 40.73961727715623]}}
{"street": "Broadway", "name": "Nanoosh Broadway L.L.C.", "location": {"type": "Point", "coordinates": [-73.98203173136255, 40.775865885261]}}
{"street": "Broadway", "name": "Bar Boulud", "location": {"type": "Point", "coordinates": [-73.98199663393459, 40.77135954602272]}}
{"street": "Broadway", "name": "600 West 169Th Rest. Inc.", "location": {"type": "Point", "coordinates": [-73.93950144614907, 40.84164929981816]}}
{"street": "Broadway", "name": "Cgm Ota Llc", "location": {"type": "Point", "coordinates": [-73.98079966018241, 40.782143153025515]}}
{"street": "Lenox Avenue", "name": "La Perle Noire Cafe And Bakery Llc", "location": {"type": "Point", "coordinates": [-73.94256948071688, 40.81165890202715]}}
{"street": "East 54 Street", "name": "Bice Ristorante", "location": {"type": "Point", "coordinates": [-73.97496553851606, 40.76090170046884]}}
{"street": "First Avenue", "name": "Kebab Garden, Inc.", "location": {"type": "Point", "coordinates": [-73.98548512795509, 40.727356455000574]}}
{"street": "Amsterdam Avenue", "name": "St. James Gate", "location": {"type": "Point", "coordinates": [-73.97731856037404, 40.78446926576978]}}
{"street": "Amsterdam Avenue", "name": "St. James Cafe", "location": {"type": "Point", "coordinates": [-73.97731856037404, 40.78446926576978]}}
{"street": "Bedford Avenue", "name": "237 Bedford Avenue Restaurant Corp.", "location": {"type": "Point", "coordinates": [-73.95974006256843, 40.71593966146671]}}
{"street": "West 44 Street", "name": "Thompson Rest. Inc", "location": {"type": "Point", "coordinates": [-73.99052196536906, 40.75921332909788]}}
{"street": "36 Avenue", "name": "Off The Hook", "location": {"type": "Point", "coordinates": [-73.9316632529567, 40.761699790013324]}}
{"street": "23 Avenue", "name": "Kalamaki Taverna Inc", "location": {"type": "Point", "coordinates": [-73.90960650023976, 40.780092072491186]}}
{"street": "43 Street", "name": "Bar 43", "location": {"type": "Point", "coordinates": [-73.92054134530679, 40.74489336663561]}}
{"street": "Havemeyer Street", "name": "Il Gallo Cedrone Ltd", "location": {"type": "Point", "coordinates": [-73.95683496327754, 40.712782974585025]}}
{"street": "Lafayette Street", "name": "265 Pastry Llc", "location": {"type": "Point", "coordinates": [-73.99655890532276, 40.72349868289508]}}
{"street": "East 15 Street", "name": "Lm Restaurant Group Llc", "location": {"type": "Point", "coordinates": [-73.98834760821919, 40.73463761939186]}}
{"street": "Ditmars Boulevard", "name": "Ardian Corp", "location": {"type": "Point", "coordinates": [-73.90960650023976, 40.780092072491186]}}
{"street": "2 Avenue", "name": "New Ko-Sushi Japanese Restaurant Inc", "location": {"type": "Point", "coordinates": [-73.95916197215746, 40.76769104801468]}}
{"street": "Lorimer Street", "name": "Lokal Restaurant Corp", "location": {"type": "Point", "coordinates": [-73.95171405895464, 40.723528223958596]}}
{"street": "Bleecker Street", "name": "Carapina Llc", "location": {"type": "Point", "coordinates": [-74.00235247131118, 40.73018212806163]}}
{"street": "2 Avenue", "name": "Sl & H Bagel Inc.", "location": {"type": "Point", "coordinates": [-73.96187472537068, 40.76393985403218]}}
{"street": "Carmine Street", "name": "Cafe Espanol", "location": {"type": "Point", "coordinates": [-74.00450682523098, 40.72964341656718]}}
{"street": "City Island Avenue", "name": "394 City Island Ave Inc", "location": {"type": "Point", "coordinates": [-73.78732638667864, 40.84959293365569]}}
{"street": "Avenue C", "name": "East Village Tavern", "location": {"type": "Point", "coordinates": [-73.97911148500697, 40.72664935898081]}}
{"street": "Third Avenue", "name": "Parlor Steakhouse", "location": {"type": "Point", "coordinates": [-73.95221920609123, 40.78122584455565]}}
{"street": "West 55 Street", "name": "Bb At 55Th & 5Th Llc", "location": {"type": "Point", "coordinates": [-73.97685117512759, 40.76245620533106]}}
{"street": "Broadway", "name": "3952 Bway Corp.", "location": {"type": "Point", "coordinates": [-73.94071333124946, 40.83954207233416]}}
{"street": "Coney Island Avenue", "name": "Nargis Corp", "location": {"type": "Point", "coordinates": [-73.96049416751836, 40.58793957376009]}}
{"street": "Arthur Avenue", "name": "609 Edibles Llc", "location": {"type": "Point", "coordinates": [-73.88735316104305, 40.85576560657786]}}
{"street": "7 Avenue South", "name": "Grand Sichuan 7 Ave., Inc", "location": {"type": "Point", "coordinates": [-74.00478457870383, 40.730135360071074]}}
{"street": "East 4 Street", "name": "Eu Restaurant Llc", "location": {"type": "Point", "coordinates": [-73.98294048897056, 40.7234891166481]}}
{"street": "2 Avenue", "name": "Vero Midtown Llc", "location": {"type": "Point", "coordinates": [-73.9670490263544, 40.75688119722247]}}
{"street": "W 57Th St", "name": "Alfredo's Coal Oven Pizzeria Corp", "location": {"type": "Point", "coordinates": [-73.97819162629742, 40.76474127175857]}}
{"street": "9 Avenue", "name": "Opa-Europa Inc", "location": {"type": "Point", "coordinates": [-73.98865074149819, 40.76386892939013]}}
{"street": "8 Avenue", "name": "M & M 28Th St Restaurant Llc", "location": {"type": "Point", "coordinates": [-73.99567444654701, 40.74912904132992]}}
{"street": "Lexington Avenue", "name": "Passione Ristorante Llc", "location": {"type": "Point", "coordinates": [-73.94850500611022, 40.78919383773524]}}
{"street": "West 44 Street", "name": "Progetto Inc.", "location": {"type": "Point", "coordinates": [-73.99103394487582, 40.759462251446564]}}
{"street": "Amsterdam Avenue", "name": "Fusha Japanese Rest. Inc.", "location": {"type": "Point", "coordinates": [-73.98038867568707, 40.78026133431278]}}
{"street": "Woodhaven Boulevard", "name": "Woodhaven Blvd Rest Inc", "location": {"type": "Point", "coordinates": [-73.86148084756303, 40.72646491702238]}}
{"street": "Clarendon Road", "name": "Footprint Cafe Inc.", "location": {"type": "Point", "coordinates": [-73.9210202277115, 40.64493186623036]}}
{"street": "West 14 Street", "name": "4 Runners, Inc", "location": {"type": "Point", "coordinates": [-74.00282844758836, 40.739860181491736]}}
{"street": "35 Avenue", "name": "Long Island City Apple, Llc", "location": {"type": "Point", "coordinates": [-73.93866902925225, 40.74570244980828]}}
{"street": "Wythe Avenue", "name": "Williamsburger Llc", "location": {"type": "Point", "coordinates": [-73.96509507653262, 40.71447172219791]}}
{"street": "1 Avenue", "name": "Alfie Company Llc", "location": {"type": "Point", "coordinates": [-73.94803727446144, 40.77861760939433]}}
{"street": "York Avenue", "name": "Pry Restaurant Corp", "location": {"type": "Point", "coordinates": [-73.95078928406468, 40.77091062087953]}}
{"street": "Emmons Avenue", "name": "New York Steak House Llc", "location": {"type": "Point", "coordinates": [-73.94836552882961, 40.583752258531696]}}
{"street": "Lexington Avenue", "name": "Lexington Avenue Bbq, Llc", "location": {"type": "Point", "coordinates": [-73.9810192005436, 40.74455166608659]}}
{"street": "Broadway", "name": "Cherry Cafe & Restaurant, Inc.", "location": {"type": "Point", "coordinates": [-73.9316632529567, 40.761699790013324]}}
{"street": "York Avenue", "name": "Tj 104 Restaurant Corp.", "location": {"type": "Point", "coordinates": [-73.94478203963416, 40.779213014940176]}}
{"street": "3 Avenue", "name": "3Rd Ave 26 Rest. Corp.", "location": {"type": "Point", "coordinates": [-73.98165618876195, 40.740815433312136]}}
{"street": "Dyckman Street", "name": "Sushi Vida Inc.", "location": {"type": "Point", "coordinates": [-73.92792516579355, 40.86612787909837]}}
{"street": "West 55 Street", "name": "The Shoreham Llc", "location": {"type": "Point", "coordinates": [-73.97663579918674, 40.7623940412621]}}
{"street": "3 Avenue", "name": "Cavatappo Wine Bar Llc", "location": {"type": "Point", "coordinates": [-73.98198139101744, 40.74036808869556]}}
{"street": "Third Avenue", "name": "179 Third Avenue Rest. Inc", "location": {"type": "Point", "coordinates": [-73.98589881608854, 40.735045658351055]}}
{"street": "31 Avenue", "name": "Point 31 Inc.", "location": {"type": "Point", "coordinates": [-73.91327185810974, 40.76286893025696]}}
{"street": "7 Avenue South", "name": "Red Bamboo On 7Th Avenue Inc", "location": {"type": "Point", "coordinates": [-74.01019960472792, 40.73358645135369]}}
{"street": "Sullivan Street", "name": "Bonarue Bleu Industries Inc", "location": {"type": "Point", "coordinates": [-74.00082275861485, 40.728274955168224]}}
{"street": "Downing Street", "name": "Scuderia Gallo Llc", "location": {"type": "Point", "coordinates": [-74.00295895498436, 40.72955979397233]}}
{"street": "1 Avenue", "name": "Fresco Bagel, Llc", "location": {"type": "Point", "coordinates": [-73.95840995999819, 40.76454397407157]}}
{"street": "St Nicholas Avenue", "name": "Javier And David Restaurant, Corp.", "location": {"type": "Point", "coordinates": [-73.92915232345905, 40.85552217772791]}}
{"street": "37 Avenue", "name": "Cafe La Nueva Bakery Inc", "location": {"type": "Point", "coordinates": [-73.88361254528269, 40.75163073936716]}}
{"street": "Macdougal Street", "name": "Groove Enterprises Inc", "location": {"type": "Point", "coordinates": [-74.00003615838915, 40.730513075323415]}}
{"street": "Central Park South", "name": "Mmr Ventures, Llc", "location": {"type": "Point", "coordinates": [-73.97430752550486, 40.76484909172368]}}
{"street": "Woodhaven Boulevard", "name": "Pollos Mario Woodhaven Corp.", "location": {"type": "Point", "coordinates": [-73.86148084756303, 40.72646491702238]}}
{"street": "Fifth Street", "name": "Fifth & 5Th Llc", "location": {"type": "Point", "coordinates": [-73.98449111295082, 40.671654669526156]}}
{"street": "3 Avenue", "name": "Steven Jay, Llc", "location": {"type": "Point", "coordinates": [-73.95221920609123, 40.78122584455565]}}
{"street": "West 13 Street", "name": "Gat 35 Corp.", "location": {"type": "Point", "coordinates": [-73.99524961992947, 40.73581734527472]}}
{"street": "Amsterdam Avenue", "name": "480 Rest Amsterdam Inc.", "location": {"type": "Point", "coordinates": [-73.97638398901853, 40.785821380125356]}}
{"street": "9 Avenue", "name": "802 Restaurant Corp", "location": {"type": "Point", "coordinates": [-73.98744564997895, 40.76553267514436]}}
{"street": "Amsterdam Avenue", "name": "Best Boat Seafood Restaurant Inc", "location": {"type": "Point", "coordinates": [-73.97073624667456, 40.79355554957732]}}
{"street": "Broadway", "name": "Tapas Food And Wine, Inc.", "location": {"type": "Point", "coordinates": [-73.98200475170165, 40.77639648525826]}}
{"street": "Dekalb Avenue", "name": "247 Cafe Inc.", "location": {"type": "Point", "coordinates": [-73.96924544953329, 40.68950142978864]}}
{"street": "7 Avenue South", "name": "New Organico Inc.", "location": {"type": "Point", "coordinates": [-74.00335465583623, 40.73258788751083]}}
{"street": "3 Avenue", "name": "Asb Pizzeria Inc", "location": {"type": "Point", "coordinates": [-73.95062814906976, 40.781770000585084]}}
{"street": "Smith Street", "name": "Stinky Vine, Llc", "location": {"type": "Point", "coordinates": [-73.99351612761077, 40.68225820909279]}}
{"street": "2 Avenue", "name": "Manna 2Nd Avenue Llc", "location": {"type": "Point", "coordinates": [-73.9537998121268, 40.775101448706614]}}
{"street": "Amsterdam Avenue", "name": "J.T. Culinary Llc", "location": {"type": "Point", "coordinates": [-73.95980926000668, 40.80847865003568]}}
{"street": "East 5 Street", "name": "Lavagna", "location": {"type": "Point", "coordinates": [-73.98333036566906, 40.72443304671631]}}
{"street": "Bedford Avenue", "name": "18 Bedford Ave Llc", "location": {"type": "Point", "coordinates": [-73.95189214025116, 40.72329009296456]}}
{"street": "Washington Street", "name": "Abg Standard Operator, Llc", "location": {"type": "Point", "coordinates": [-74.0077319902028, 40.74065773513024]}}
{"street": "Emmons Avenue", "name": "2005 Mambo Sushi Corp", "location": {"type": "Point", "coordinates": [-73.94838750826, 40.58374972244357]}}
{"street": "Ninth Avenue", "name": "Chow Down Inc", "location": {"type": "Point", "coordinates": [-73.98702296862518, 40.766117234463366]}}
{"street": "Steinway Street", "name": "Q & P Pizza Inc", "location": {"type": "Point", "coordinates": [-73.91327185810974, 40.76286893025696]}}
{"street": "Prospect Park West", "name": "Elora Spanish Mexican Restaurant Inc.", "location": {"type": "Point", "coordinates": [-73.98947567161177, 40.6634630509197]}}
{"street": "Montague Street", "name": "Zorror Asian, Inc.", "location": {"type": "Point", "coordinates": [-73.99465007863492, 40.694860367476736]}}
{"street": "Skillman Avenue", "name": "46-02 Skillman Cafe Llc", "location": {"type": "Point", "coordinates": [-73.92054134530679, 40.74489336663561]}}
{"street": "First Avenue", "name": "Jtn Riviera Corp", "location": {"type": "Point", "coordinates": [-73.96098759587693, 40.760964119235496]}}
{"street": "West 50 Street", "name": "401 W 50 Tavern Inc.", "location": {"type": "Point", "coordinates": [-73.98892207333665, 40.763519230129276]}}
{"street": "2 Avenue", "name": "1702 Rathbones Inc.", "location": {"type": "Point", "coordinates": [-73.95064539253997, 40.77937324117528]}}
{"street": "Ninth Avenue", "name": "Nahm, Inc.", "location": {"type": "Point", "coordinates": [-73.9900806635248, 40.761935387027165]}}
{"street": "Seventh Avenue", "name": "Cafe Steinhof Inc.", "location": {"type": "Point", "coordinates": [-73.98409759690072, 40.6639240533837]}}
{"street": "2 Avenue", "name": "Pescatore 15 Inc", "location": {"type": "Point", "coordinates": [-73.96809182217982, 40.758630224005685]}}
{"street": "Washington Avenue", "name": "Il Porto Llc", "location": {"type": "Point", "coordinates": [-73.96768002229076, 40.69751959566193]}}
{"street": "2 Avenue", "name": "Ali Baba's Terrace", "location": {"type": "Point", "coordinates": [-73.9703231501742, 40.752334394282]}}
{"street": "3 Avenue", "name": "Belcantata Rest. Inc", "location": {"type": "Point", "coordinates": [-73.9682271382128, 40.759309366701586]}}
{"street": "Woodside Avenue", "name": "Sean Og Enterprises Llc", "location": {"type": "Point", "coordinates": [-73.9048471440804, 40.74519376448069]}}
{"street": "Queens Boulevard", "name": "Global Entertainment Group Llc", "location": {"type": "Point", "coordinates": [-73.87835115518163, 40.73871040256307]}}
{"street": "East 86 Street", "name": "Maz Mezcal Inc.", "location": {"type": "Point", "coordinates": [-73.95131496301332, 40.77767048775498]}}
{"street": "40 Road", "name": "Sabor Latino I,Corp", "location": {"type": "Point", "coordinates": [-73.87835115518163, 40.73871040256307]}}
{"street": "31 Avenue", "name": "Ifeta Corp", "location": {"type": "Point", "coordinates": [-73.91327185810974, 40.76286893025696]}}
{"street": "2 Avenue", "name": "Anagap Restaurant Inc.", "location": {"type": "Point", "coordinates": [-73.97791283646836, 40.741988424417286]}}
{"street": "Macdougal Street", "name": "Pasta Bistro Grill Inc.", "location": {"type": "Point", "coordinates": [-74.00113673524248, 40.7292744334016]}}
{"street": "Lexington Avenue", "name": "Tai Bagels", "location": {"type": "Point", "coordinates": [-73.95655347233438, 40.77820047454975]}}
{"street": "Lexington Avenue", "name": "Curry Mahal Inc.", "location": {"type": "Point", "coordinates": [-73.98237347373367, 40.742743854921855]}}
{"street": "West Street", "name": "Cafe Casano Llc", "location": {"type": "Point", "coordinates": [-74.01496191568795, 40.710183617614945]}}
{"street": "West Street", "name": "Osteria Casano Llc", "location": {"type": "Point", "coordinates": [-74.01496191568795, 40.710183617614945]}}
{"street": "Varick Street", "name": "110 Varick St Corp.", "location": {"type": "Point", "coordinates": [-74.00595057299304, 40.724412719631296]}}
{"street": "Amsterdam Avenue", "name": "Jos Hospitality Group Llc", "location": {"type": "Point", "coordinates": [-73.97433353479175, 40.78862726485676]}}
{"street": "70 Road", "name": "Kang Yue Usa Corp.", "location": {"type": "Point", "coordinates": [-73.84628429608335, 40.720707263029794]}}
{"street": "2 Avenue", "name": "58 2Nd Rest Corp.", "location": {"type": "Point", "coordinates": [-73.98971194149277, 40.72580062788984]}}
{"street": "Avenue B", "name": "Becaf Llc", "location": {"type": "Point", "coordinates": [-73.97911148500697, 40.72664935898081]}}
{"street": "5 Avenue", "name": "Cyril 254 Fifth Avenue Llc", "location": {"type": "Point", "coordinates": [-73.98713088726868, 40.74489323457192]}}
{"street": "Mulberry Street", "name": "133 Mulberry Street Restaurant, Llc", "location": {"type": "Point", "coordinates": [-73.99767993467236, 40.71856108555397]}}
{"street": "Washington Avenue", "name": "Mojito Cuban Cuisine Corp", "location": {"type": "Point", "coordinates": [-73.96749247502058, 40.69623579585814]}}
{"street": "Madison Avenue", "name": "Paola's Retaurant Group Llc", "location": {"type": "Point", "coordinates": [-73.95607900581763, 40.784547282982096]}}
{"street": "Graham Avenue", "name": "451 Graham Avenue Corp", "location": {"type": "Point", "coordinates": [-73.94515983077149, 40.71886377251168]}}
{"street": "Fulton Street", "name": "662 Fulton St Restaurant Corp", "location": {"type": "Point", "coordinates": [-73.97555082633563, 40.68671870554047]}}
{"street": "Riverdale Avenue", "name": "Jasper's Pizza & More, Llc", "location": {"type": "Point", "coordinates": [-73.9070285591605, 40.88610155472735]}}
{"street": "Broadway", "name": "2896 Broadway Food Service Inc.", "location": {"type": "Point", "coordinates": [-73.965592342388, 40.80591941255172]}}
{"street": "3 Avenue", "name": "Romy East Llc", "location": {"type": "Point", "coordinates": [-73.9565179653913, 40.77532629204342]}}
{"street": "3 Avenue", "name": "Aam Restaurant Llc", "location": {"type": "Point", "coordinates": [-73.98030503306632, 40.74271687526101]}}
{"street": "Columbus Avenue", "name": "Capicua Corporation", "location": {"type": "Point", "coordinates": [-73.97994335610099, 40.774536138232236]}}
{"street": "Greenwich Street", "name": "Turks & Frogs Tribeca", "location": {"type": "Point", "coordinates": [-74.00948803291709, 40.72369621434132]}}
{"street": "1 Avenue", "name": "Ravagh Restaurant Corp.", "location": {"type": "Point", "coordinates": [-73.95842452809342, 40.764462481929456]}}
{"street": "6 Avenue", "name": "Pizza 33", "location": {"type": "Point", "coordinates": [-73.99692450416774, 40.73723101088228]}}
{"street": "7 Avenue South", "name": "E.D.O. Food Iv, Llc.", "location": {"type": "Point", "coordinates": [-74.00370715786927, 40.73197082168487]}}
{"street": "30 Avenue", "name": "Chicken Shack Inc", "location": {"type": "Point", "coordinates": [-73.91327185810974, 40.76286893025696]}}
{"street": "Amsterdam Avenue", "name": "Amsterdam Ale House,Incorporated", "location": {"type": "Point", "coordinates": [-73.9796665144255, 40.78130678353824]}}
{"street": "West 34 Street", "name": "Alpha Fusion Inc", "location": {"type": "Point", "coordinates": [-73.9958812906138, 40.75320297012263]}}
{"street": "2 Avenue", "name": "Ala Turk Inc", "location": {"type": "Point", "coordinates": [-73.95746225352207, 40.77001129885025]}}
{"street": "Rector Street", "name": "Rector Street Food Enterprises Ltd.", "location": {"type": "Point", "coordinates": [-74.0136351533353, 40.7079495337925]}}
{"street": "West 57 Street", "name": "Istanbul Cafe Corp.", "location": {"type": "Point", "coordinates": [-73.98411815847055, 40.76723239377969]}}
{"street": "Court Street", "name": "Marco Polo Take Out, Llc", "location": {"type": "Point", "coordinates": [-73.99590234577445, 40.68228291514426]}}
{"street": "West 207 Street", "name": "Little Apple, Ltd", "location": {"type": "Point", "coordinates": [-73.91975233112566, 40.86547106258941]}}
{"street": "9 Avenue", "name": "Sullivan Restaurant Llc", "location": {"type": "Point", "coordinates": [-74.00073080523352, 40.74723659357827]}}
{"street": "Henry Street", "name": "Brooklyn Heights Wine Bar Llc", "location": {"type": "Point", "coordinates": [-73.99210174987581, 40.69941675713345]}}
{"street": "Ditmars Boulevard", "name": "Watawa, Inc", "location": {"type": "Point", "coordinates": [-73.90960650023976, 40.780092072491186]}}
{"street": "Second Avenue", "name": "Southwest 85Th Restaurant Corp.", "location": {"type": "Point", "coordinates": [-73.95229115185361, 40.77709795644114]}}
{"street": "East 27 Street", "name": "Valdome Inc", "location": {"type": "Point", "coordinates": [-73.98357856525297, 40.742303187127504]}}
{"street": "Bowery", "name": "Pgt Rest. Corp.", "location": {"type": "Point", "coordinates": [-73.99244588046184, 40.72476640755616]}}
{"street": "Columbus Avenue", "name": "Blossom Restaurant & Cafe Inc.", "location": {"type": "Point", "coordinates": [-73.9738389076756, 40.78420260047261]}}
{"street": "Greenwich Street", "name": "Greenwich Hotel Resturant Llc", "location": {"type": "Point", "coordinates": [-74.01019227450553, 40.71961732156957]}}
{"street": "West 77 Street", "name": "Via Restaurant", "location": {"type": "Point", "coordinates": [-73.98037683232903, 40.78232137679288]}}
{"street": "Henry Street", "name": "Tazzini Corp.", "location": {"type": "Point", "coordinates": [-73.99606180286328, 40.691028855917175]}}
{"street": "3 Avenue", "name": "C & P Food Corporation", "location": {"type": "Point", "coordinates": [-73.97788585680746, 40.74606235320999]}}
{"street": "Third Avenue", "name": "Defonte's Of New York, Inc.", "location": {"type": "Point", "coordinates": [-73.98415413135172, 40.73747382783017]}}
{"street": "7 Avenue", "name": "324 Seventh Ave. Restaurant Corp.", "location": {"type": "Point", "coordinates": [-73.99334469491156, 40.74734481079795]}}
{"street": "7 Avenue", "name": "352 Restaurant Corp", "location": {"type": "Point", "coordinates": [-73.99265272452857, 40.74822971930058]}}
{"street": "Riverdale Avenue", "name": "Mustang's", "location": {"type": "Point", "coordinates": [-73.90418634001045, 40.90670773248542]}}
{"street": "Amsterdam Avenue", "name": "511 Amsterdam Vino Corp.", "location": {"type": "Point", "coordinates": [-73.97570050427629, 40.78673868859522]}}
{"street": "Hudson Street", "name": "Cafe 522 Hudson Inc.", "location": {"type": "Point", "coordinates": [-74.00622431895437, 40.73384167387637]}}
{"street": "Broadway", "name": "Pomme Cafe", "location": {"type": "Point", "coordinates": [-73.91327185810974, 40.76286893025696]}}
{"street": "Vernon Boulevard", "name": "Manducatis Rustica Vig, Ltd.", "location": {"type": "Point", "coordinates": [-73.93866902925225, 40.74570244980828]}}
{"street": "Amsterdam Avenue", "name": "Nabucco, Llc", "location": {"type": "Point", "coordinates": [-73.98098627448582, 40.779409810142496]}}
{"street": "40 Street", "name": "Noroc, Llc.", "location": {"type": "Point", "coordinates": [-73.92054134530679, 40.74489336663561]}}
{"street": "2 Avenue", "name": "Gulluoglu Llc", "location": {"type": "Point", "coordinates": [-73.96768754499521, 40.75600885485403]}}
{"street": "70 Road", "name": "A & A Food Enterprises Llc", "location": {"type": "Point", "coordinates": [-73.84628429608335, 40.720707263029794]}}
{"street": "2 Avenue", "name": "La Meridiana 2 Ltd.", "location": {"type": "Point", "coordinates": [-73.9862315652394, 40.73054904820458]}}
{"street": "Bond Street", "name": "112 Restaurant Corp.", "location": {"type": "Point", "coordinates": [-73.9853458972445, 40.68622799579279]}}
{"street": "Lenox Avenue", "name": "Sylvia Woods Inc", "location": {"type": "Point", "coordinates": [-73.94466490104514, 40.8087720783131]}}
{"street": "Stuyvesant Street", "name": "Sharaku, Inc", "location": {"type": "Point", "coordinates": [-73.98917963533063, 40.729855717071985]}}
{"street": "Jay Street", "name": "Porfirio Suero Sr.", "location": {"type": "Point", "coordinates": [-73.98665301192958, 40.702446375697306]}}
{"street": "30 Avenue", "name": "30-03 47Th Street Corp.", "location": {"type": "Point", "coordinates": [-73.91327185810974, 40.76286893025696]}}
{"street": "Horace Harding Expressway", "name": "S & K Halal Chinese Fusion Inc", "location": {"type": "Point", "coordinates": [-73.79462153515567, 40.73987184371066]}}
{"street": "West 13 Street", "name": "13Th Street Entertainment Llc", "location": {"type": "Point", "coordinates": [-74.00625732522656, 40.740450698401936]}}
{"street": "Carmine Street", "name": "Spunto, Inc.", "location": {"type": "Point", "coordinates": [-74.00454176175595, 40.72966771261588]}}
{"street": "Broadway", "name": "68Th St Cafe Inc.", "location": {"type": "Point", "coordinates": [-73.98198616177321, 40.77604246904676]}}
{"street": "Brighton Beach Avenue", "name": "Sea Breeze Pharmacy & Medical Supply Inc", "location": {"type": "Point", "coordinates": [-73.95600113266143, 40.57780407888207]}}
{"street": "7 Avenue South", "name": "Zucca Trattoria Inc.", "location": {"type": "Point", "coordinates": [-74.00322277925387, 40.73280852717751]}}
{"street": "Broadway", "name": "B & C Thai Gift Trading Inc", "location": {"type": "Point", "coordinates": [-73.9316632529567, 40.761699790013324]}}
{"street": "31 Avenue", "name": "3321 Astoria Inc", "location": {"type": "Point", "coordinates": [-73.9316632529567, 40.761699790013324]}}
{"street": "Broadway", "name": "Aq Kafe Llc", "location": {"type": "Point", "coordinates": [-73.98167641280297, 40.76727757574197]}}
{"street": "3 Avenue", "name": "542 3Rd Avenue Food Corp", "location": {"type": "Point", "coordinates": [-73.97709445342167, 40.74713254642484]}}
{"street": "East 20 Street", "name": "20Th St. Food Corp", "location": {"type": "Point", "coordinates": [-73.97783322126088, 40.73393301639925]}}
{"street": "South 5 Street", "name": "Jemanya Corp", "location": {"type": "Point", "coordinates": [-73.9619129112623, 40.718642703801066]}}
{"street": "East 60 Street", "name": "Dave 60 Nyc Inc", "location": {"type": "Point", "coordinates": [-73.97078786474891, 40.764174462900804]}}
{"street": "Seventh Avenue", "name": "Trel Restaurant Inc", "location": {"type": "Point", "coordinates": [-73.9823736151816, 40.76239874500661]}}
{"street": "Madison Avenue", "name": "Madison Global Llc", "location": {"type": "Point", "coordinates": [-73.96991475220038, 40.76569030751916]}}
{"street": "Arthur Avenue", "name": "Parisenne Cafe Incorporated", "location": {"type": "Point", "coordinates": [-73.88874066227686, 40.85422986710935]}}
{"street": "30 Street", "name": "New York Pao De Queijo Llc", "location": {"type": "Point", "coordinates": [-73.9316632529567, 40.761699790013324]}}
{"street": "Columbus Avenue", "name": "Gari International Inc.", "location": {"type": "Point", "coordinates": [-73.97613217885032, 40.78104598014977]}}
{"street": "Amsterdam Avenue", "name": "121St Street Cafe Ltd.", "location": {"type": "Point", "coordinates": [-73.95868493537625, 40.81001839624603]}}
{"street": "Broadway", "name": "Hunan Balcony", "location": {"type": "Point", "coordinates": [-73.97074962515744, 40.79583463942705]}}
{"street": "8 Avenue", "name": "Tutto Bene Restaurant Inc.", "location": {"type": "Point", "coordinates": [-74.00182979423583, 40.740625425052826]}}
{"street": "3 Avenue", "name": "Cafe Rustica Inc", "location": {"type": "Point", "coordinates": [-74.03025079941531, 40.62554458413769]}}
{"street": "2 Avenue", "name": "Abitino's Pizza 49Th Street Corp", "location": {"type": "Point", "coordinates": [-73.96864981191949, 40.75464027497887]}}
{"street": "East 31 Street", "name": "Vino Five Group Llc", "location": {"type": "Point", "coordinates": [-73.97941104505841, 40.74381796934267]}}
{"street": "Columbus Avenue", "name": "Lennys 74Th Street Llc", "location": {"type": "Point", "coordinates": [-73.97775095850307, 40.77884264117796]}}
{"street": "7 Avenue South", "name": "Carabean Llc", "location": {"type": "Point", "coordinates": [-74.0022226381198, 40.73453564784322]}}
{"street": "Broadway", "name": "Donizetti Llc", "location": {"type": "Point", "coordinates": [-73.97783316592154, 40.78695496666427]}}
{"street": "Broadway", "name": "Vine Sushi", "location": {"type": "Point", "coordinates": [-73.96372581059762, 40.79685012763133]}}
{"street": "Amsterdam Avenue", "name": "D & D Thai Restaurant Corp", "location": {"type": "Point", "coordinates": [-73.97707646698109, 40.784859105554006]}}
{"street": "Vanderbilt Avenue", "name": "Brooklyn Food & Drink, Llc.", "location": {"type": "Point", "coordinates": [-73.96822976542948, 40.67953220017649]}}
{"street": "2 Avenue", "name": "Cafe Mocha, Inc.", "location": {"type": "Point", "coordinates": [-73.98817410082268, 40.72788705499784]}}
{"street": "Spring Street", "name": "Emilia, Inc.", "location": {"type": "Point", "coordinates": [-74.00273731777742, 40.72489194174372]}}
{"street": "Bowery", "name": "Friendly Foods Llc", "location": {"type": "Point", "coordinates": [-73.99280786978804, 40.723886426597936]}}
{"street": "West 13 Street", "name": "Fig & Olive Thirteen Street Llc", "location": {"type": "Point", "coordinates": [-74.00688021596142, 40.74065603008545]}}
{"street": "Greenwich Avenue", "name": "Summit Of The World Inc.", "location": {"type": "Point", "coordinates": [-74.00114102589188, 40.736589866244806]}}
{"street": "2 Avenue", "name": "A La Turk Inc", "location": {"type": "Point", "coordinates": [-73.95746225352207, 40.77001129885025]}}
{"street": "East 19 Street", "name": "Copel 2007 Inc", "location": {"type": "Point", "coordinates": [-73.98901946353021, 40.7380943600304]}}
{"street": "Dekalb Avenue", "name": "Chez Oskar Inc.", "location": {"type": "Point", "coordinates": [-73.97100754915039, 40.68957187617454]}}
{"street": "Fulton Street", "name": "Aqualis Llc", "location": {"type": "Point", "coordinates": [-73.97375052109531, 40.68606291595486]}}
{"street": "1 Avenue", "name": "Alberobello Caffe Inc", "location": {"type": "Point", "coordinates": [-73.9603940433376, 40.76177350906187]}}
{"street": "2 Avenue", "name": "A & D Wine Corp.", "location": {"type": "Point", "coordinates": [-73.9895358571618, 40.72609243259407]}}
{"street": "2 Avenue", "name": "Don Pablo, Inc.", "location": {"type": "Point", "coordinates": [-73.95023170440652, 40.77992182761312]}}
{"street": "Fulton Street", "name": "Hl Koeln Corp", "location": {"type": "Point", "coordinates": [-73.97357039605497, 40.68592736760224]}}
{"street": "7 Avenue", "name": "Ten Japanese Cuisine, Corp.", "location": {"type": "Point", "coordinates": [-73.98460134542496, 40.66331262935884]}}
{"street": "10 Avenue", "name": "Hell's Kitchen Cream & Sugar Inc", "location": {"type": "Point", "coordinates": [-73.99423819347864, 40.76125529958476]}}
{"street": "Adam Clayton Powell Jr. Blvd", "name": "Burkinabe Entertainment Llc", "location": {"type": "Point", "coordinates": [-73.94435552943406, 40.814197519489795]}}
{"street": "1 Avenue", "name": "J.A.V. Food Corp.", "location": {"type": "Point", "coordinates": [-73.9528110200628, 40.772224322383344]}}
{"street": "West 14 Street", "name": "Abe & Arthur's Restaurant", "location": {"type": "Point", "coordinates": [-74.00618752106953, 40.74130493967499]}}
{"street": "3 Avenue", "name": "Amber Asian One Inc.", "location": {"type": "Point", "coordinates": [-73.95685071454216, 40.774858644588164]}}
{"street": "Greenwich Avenue", "name": "Innovation 2010 Inc.", "location": {"type": "Point", "coordinates": [-73.99982931432237, 40.734443112591464]}}
{"street": "Broadway", "name": "Acumen Gmat, Llc", "location": {"type": "Point", "coordinates": [-73.96532541146662, 40.80628270212235]}}
{"street": "7 Avenue South", "name": "L Plus L Productions Llc", "location": {"type": "Point", "coordinates": [-74.00257224651176, 40.734011438017376]}}
{"street": "4 Avenue", "name": "Act 718,Llc", "location": {"type": "Point", "coordinates": [-73.98164801929452, 40.67928989376088]}}
{"street": "Lafayette Street", "name": "Pinche Taqueria", "location": {"type": "Point", "coordinates": [-73.99460174180251, 40.72593075811833]}}
{"street": "3 Avenue", "name": "Third Ave Cafe Llc", "location": {"type": "Point", "coordinates": [-73.97978342628932, 40.74341834644383]}}
{"street": "Bleecker Street", "name": "151 Bleecker Llc", "location": {"type": "Point", "coordinates": [-73.99951455161215, 40.72833671601251]}}
{"street": "3 Avenue", "name": "Nana Sushi & Lounge Inc", "location": {"type": "Point", "coordinates": [-73.97796841798318, 40.74589017689484]}}
{"street": "Prospect Park West", "name": "Le P'Tit Paris", "location": {"type": "Point", "coordinates": [-73.99001015900488, 40.66378810651796]}}
{"street": "Broadway", "name": "Arties's Delicatessen", "location": {"type": "Point", "coordinates": [-73.97808370765392, 40.78622607503854]}}
{"street": "Broadway", "name": "Jan Co Central Inc", "location": {"type": "Point", "coordinates": [-73.95260132843397, 40.82371381327501]}}
{"street": "Columbus Avenue", "name": "Amber West 70 Inc", "location": {"type": "Point", "coordinates": [-73.97994335610099, 40.774536138232236]}}
{"street": "Columbus Avenue", "name": "Lansky's Operating Corporation", "location": {"type": "Point", "coordinates": [-73.97935757525414, 40.77657259455106]}}
{"street": "Amsterdam Avenue", "name": "Sushi Hana Fusion Inc", "location": {"type": "Point", "coordinates": [-73.9766987517288, 40.785380712331005]}}
